Station ID,Station Name,Latitude,Longitude,Free Bikes,Empty Slots,Total Capacity,Operational Status,Last Updated,Data Fetch Timestamp
fb848740232947ffa050f15ea0b72483,TALBOT STREET,53.330995,-6.260527,1,19,20,CLOSED,2024-10-16T19:04:52.904227Z,10/16/2024 19:20
82ef607558c14207bbdd3b6b49b34100,TALBOT STREET,53.349985,-6.256698,6,24,30,CLOSED,2024-10-16T19:00:52.904227Z,10/16/2024 19:20
3c27a8eb376f460d89440055cb647611,GRAND CANAL DOCK,53.357732,-6.241132,1,24,25,CLOSED,2024-10-16T18:59:52.904227Z,10/16/2024 19:20
d218aa93d65642b3a557ae498207de67,HIGH STREET,53.337529,-6.266259,19,16,35,OPEN,2024-10-16T19:07:52.904227Z,10/16/2024 19:20
d36f0b223f7340c7808575d84b283831,ST. STEPHEN'S GREEN,53.354192,-6.262061,15,5,20,OPEN,2024-10-16T18:39:52.904227Z,10/16/2024 19:20
735fbeec70fa4697bb597e72789eb09d,MERRION SQUARE,53.356194,-6.237537,6,14,20,CLOSED,2024-10-16T19:04:52.904227Z,10/16/2024 19:20
e307905547684f7f901173b9ff5df3e6,MERRION SQUARE,53.339251,-6.274302,19,1,20,CLOSED,2024-10-16T18:56:52.904227Z,10/16/2024 19:20
821b058c937f49289059d1b390b10432,SMITHFIELD,53.344278,-6.279043,0,35,35,CLOSED,2024-10-16T18:59:52.904227Z,10/16/2024 19:20
0155196b1f504c9f9410f6e4291de234,ST. STEPHEN'S GREEN,53.351561,-6.272022,1,34,35,CLOSED,2024-10-16T18:31:52.904227Z,10/16/2024 19:20
9c3090e4230f4cb98e961c22115c4545,KING STREET NORTH,53.336384,-6.270174,31,9,40,CLOSED,2024-10-16T18:43:52.904227Z,10/16/2024 19:20
30063ece420a435d8852a2a6236ea09d,HIGH STREET,53.341115,-6.242084,26,9,35,CLOSED,2024-10-16T18:32:52.904227Z,10/16/2024 19:20
7e64d47580f34bab857942445db35647,MERRION SQUARE,53.340087,-6.259635,3,17,20,OPEN,2024-10-16T18:44:52.904227Z,10/16/2024 19:20
7cbdb0c0d5d443cbba479d332870dd22,GRATTAN STREET,53.359879,-6.273878,12,8,20,OPEN,2024-10-16T18:28:52.904227Z,10/16/2024 19:20
bd5e192eefe64446855c9e69d95f45ac,HIGH STREET,53.334386,-6.271195,11,19,30,CLOSED,2024-10-16T18:35:52.904227Z,10/16/2024 19:20
113321ab87c04ea6b4306f3ff425b76d,HIGH STREET,53.343939,-6.257975,19,21,40,OPEN,2024-10-16T18:31:52.904227Z,10/16/2024 19:20
a80f84233b37489da6128ab0b2523d65,TALBOT STREET,53.359192,-6.26114,24,16,40,OPEN,2024-10-16T18:37:52.904227Z,10/16/2024 19:20
e11fa70a54c64ce6b3591a5df689b7e2,PEARSE STREET,53.334663,-6.235743,15,5,20,CLOSED,2024-10-16T18:47:52.904227Z,10/16/2024 19:20
f6f8a53ca6ec4e4ebfa5aecc6242263d,HATCH STREET,53.35857,-6.273255,0,25,25,CLOSED,2024-10-16T18:55:52.904227Z,10/16/2024 19:20
f2deea300e86446d84fa7b690d46d1b5,KING STREET NORTH,53.336731,-6.250099,31,9,40,CLOSED,2024-10-16T18:25:52.904227Z,10/16/2024 19:20
7144b512271f44d3851cbf0ff5a2d8f3,HIGH STREET,53.344735,-6.270402,17,18,35,OPEN,2024-10-16T18:41:52.904227Z,10/16/2024 19:20
7fc40cb9671148d28dc394b985e18335,MOUNTJOY SQUARE,53.353713,-6.271858,14,11,25,CLOSED,2024-10-16T18:43:52.904227Z,10/16/2024 19:20
1d65f87ab4b1464fa317130f8ac07051,GRAND CANAL DOCK,53.341295,-6.258992,2,38,40,CLOSED,2024-10-16T18:33:52.904227Z,10/16/2024 19:20
15001df7c75647cd8e6c675d65e22523,SMITHFIELD,53.350827,-6.277373,3,37,40,OPEN,2024-10-16T18:27:52.904227Z,10/16/2024 19:20
9718ae945aa8439a9e7187293595ffba,HIGH STREET,53.345625,-6.257887,20,20,40,OPEN,2024-10-16T19:17:52.904227Z,10/16/2024 19:20
2b373e28d10e442c8d9d1ebb6169de7a,GRATTAN STREET,53.357943,-6.266597,33,7,40,CLOSED,2024-10-16T18:39:52.904227Z,10/16/2024 19:20
848e361c1e1c442e941657abdf7a08a9,MERRION SQUARE,53.349592,-6.272456,9,11,20,CLOSED,2024-10-16T19:06:52.904227Z,10/16/2024 19:20
69fab59495384fb3b26c75074fc85b88,HATCH STREET,53.330932,-6.273519,2,28,30,CLOSED,2024-10-16T18:52:52.904227Z,10/16/2024 19:20
d97df283950e47e3b3ee8fcf48bbc4c4,HATCH STREET,53.359842,-6.2509,18,2,20,CLOSED,2024-10-16T18:28:52.904227Z,10/16/2024 19:20
9e26169d120549a48672726706fdabd0,GRAND CANAL DOCK,53.356681,-6.236789,25,10,35,CLOSED,2024-10-16T19:11:52.904227Z,10/16/2024 19:20
98da44f52e914d9abeca61663e722f5a,GRAND CANAL DOCK,53.348301,-6.257642,20,0,20,OPEN,2024-10-16T18:59:52.904227Z,10/16/2024 19:20
eaff857d23b848f2b15dd4bd0cbe44d2,ST. STEPHEN'S GREEN,53.337911,-6.243249,5,25,30,OPEN,2024-10-16T18:48:52.904227Z,10/16/2024 19:20
5e76be4ff3864c4e9d165e39ef07528a,WILTON TERRACE,53.338775,-6.273432,4,31,35,CLOSED,2024-10-16T18:54:52.904227Z,10/16/2024 19:20
d3580c3fcd8b4b48bb1b1cdbfc222a23,MOUNTJOY SQUARE,53.355656,-6.268162,31,9,40,CLOSED,2024-10-16T19:15:52.904227Z,10/16/2024 19:20
9fb55d6f8e44472a9a80871072090cd1,SMITHFIELD,53.343081,-6.239135,12,23,35,CLOSED,2024-10-16T18:41:52.904227Z,10/16/2024 19:20
b0b18cc94bc645e89158da6524e9db36,ST. STEPHEN'S GREEN,53.349128,-6.251965,22,3,25,OPEN,2024-10-16T18:53:52.904227Z,10/16/2024 19:20
b652e6d8ed3e4b27946dfa87fef093a4,KING STREET NORTH,53.333393,-6.271335,5,15,20,OPEN,2024-10-16T19:16:52.904227Z,10/16/2024 19:20
f943e554ad224b26bacec803d0a9ebe4,ST. STEPHEN'S GREEN,53.341655,-6.241765,12,18,30,CLOSED,2024-10-16T19:00:52.904227Z,10/16/2024 19:20
5726e42ee9e94d7ca0429f04007da95f,HIGH STREET,53.340658,-6.240803,16,14,30,CLOSED,2024-10-16T19:07:52.904227Z,10/16/2024 19:20
17e2eb43de1e4f5d8bdcfc6e78c8a38d,HIGH STREET,53.335827,-6.254868,17,18,35,OPEN,2024-10-16T18:37:52.904227Z,10/16/2024 19:20
ebc9951fbc04474daf891acfd83fcaf9,MOUNTJOY SQUARE,53.355256,-6.271706,18,7,25,CLOSED,2024-10-16T19:17:52.904227Z,10/16/2024 19:20
fa83ecd44d5d409c9759a0c2e0bc744b,HEUSTON STATION,53.337773,-6.279533,1,24,25,CLOSED,2024-10-16T19:17:52.904227Z,10/16/2024 19:20
01560a5ff595450b85b559903353e32e,HEUSTON STATION,53.330229,-6.278346,3,32,35,OPEN,2024-10-16T19:14:52.904227Z,10/16/2024 19:20
c2f4810429654d9392482a916d6841a0,WILTON TERRACE,53.331451,-6.236845,0,40,40,OPEN,2024-10-16T18:31:52.904227Z,10/16/2024 19:20
889e65edb15944df90c31051d15dcef7,PEARSE STREET,53.347669,-6.242671,9,21,30,CLOSED,2024-10-16T18:25:52.904227Z,10/16/2024 19:20
8d9f1fbb9e3549999109075a26b9247f,TALBOT STREET,53.346935,-6.263078,2,38,40,CLOSED,2024-10-16T19:17:52.904227Z,10/16/2024 19:20
94b9790fe8294e8e9aa5ffa81c033738,ECCLES STREET,53.350116,-6.244154,13,7,20,CLOSED,2024-10-16T19:19:52.904227Z,10/16/2024 19:20
81df26146b234cc0bc048c4243214f1a,TALBOT STREET,53.345967,-6.247524,8,12,20,CLOSED,2024-10-16T19:00:52.904227Z,10/16/2024 19:20
1d73bbe7783946b2b7e2755ac4217142,GRATTAN STREET,53.33242,-6.244309,17,8,25,OPEN,2024-10-16T18:20:52.904227Z,10/16/2024 19:20
00a1af8135f14964bcea1bd672c78a26,GRATTAN STREET,53.359553,-6.264319,40,0,40,OPEN,2024-10-16T18:21:52.904227Z,10/16/2024 19:20
c1ed4b83aa3c4c0880f58a7b999b1c70,MOUNTJOY SQUARE,53.350665,-6.261864,4,31,35,CLOSED,2024-10-16T18:22:52.904227Z,10/16/2024 19:20
1b310a98f0a54b9f8cd4f04dda4b4c9e,HEUSTON STATION,53.341045,-6.244276,15,5,20,OPEN,2024-10-16T18:29:52.904227Z,10/16/2024 19:20
f6e93af323a34f9fa68853e6ad1f17ed,TALBOT STREET,53.350776,-6.266474,12,28,40,OPEN,2024-10-16T18:47:52.904227Z,10/16/2024 19:20
7d7dfedac68744869aca374c69d11109,ECCLES STREET,53.342243,-6.27115,34,1,35,CLOSED,2024-10-16T18:37:52.904227Z,10/16/2024 19:20
547c1d770ff248c8bd6916c0ab84faeb,ST. STEPHEN'S GREEN,53.358115,-6.232727,9,31,40,OPEN,2024-10-16T18:33:52.904227Z,10/16/2024 19:20
669bfab209154298a28b73c5827c1264,GRAND CANAL DOCK,53.337664,-6.268811,31,4,35,CLOSED,2024-10-16T19:00:52.904227Z,10/16/2024 19:20
c1fc8223389241d19971b64dae043ece,ECCLES STREET,53.359466,-6.268026,7,13,20,OPEN,2024-10-16T19:08:52.904227Z,10/16/2024 19:20
d3ce1724e6d14d80a7c44d87b0a04d6a,PEARSE STREET,53.359295,-6.25616,26,9,35,CLOSED,2024-10-16T18:21:52.904227Z,10/16/2024 19:20
ca9fba284f384f2183816be293cedd9c,TALBOT STREET,53.33707,-6.270773,14,6,20,OPEN,2024-10-16T19:08:52.904227Z,10/16/2024 19:20
70b6ab5d58cf4b14adae130bd1278c66,MOUNTJOY SQUARE,53.331455,-6.230841,25,0,25,OPEN,2024-10-16T18:40:52.904227Z,10/16/2024 19:20
1e44922f05c948f1a12f56b161437124,GRATTAN STREET,53.342563,-6.264397,19,16,35,CLOSED,2024-10-16T18:28:52.904227Z,10/16/2024 19:20
09baf402e99b494489a2a5b237d9d29b,HATCH STREET,53.34187,-6.238732,25,10,35,CLOSED,2024-10-16T18:47:52.904227Z,10/16/2024 19:20
7e120a94d0e34454beffd8c958d79a70,PARNELL SQUARE,53.33856,-6.268514,20,5,25,OPEN,2024-10-16T18:23:52.904227Z,10/16/2024 19:20
8754927a0e994e37b93c1d1bec816bcc,MERRION SQUARE,53.357344,-6.275032,20,0,20,OPEN,2024-10-16T19:03:52.904227Z,10/16/2024 19:20
967a4bd6be564952b454bcde3cbf00ec,TALBOT STREET,53.333227,-6.266708,23,17,40,OPEN,2024-10-16T19:17:52.904227Z,10/16/2024 19:20
f80262ed22bf4d7f8a49abb420bfac2b,PARNELL SQUARE,53.338315,-6.246042,18,17,35,CLOSED,2024-10-16T18:42:52.904227Z,10/16/2024 19:20
78dd1520d53f4775867fc4513b2702e1,ST. STEPHEN'S GREEN,53.357866,-6.237175,4,36,40,CLOSED,2024-10-16T19:14:52.904227Z,10/16/2024 19:20
61c4ffaa4ffb469d83b3f98c462d6252,HIGH STREET,53.355195,-6.244083,22,8,30,OPEN,2024-10-16T18:34:52.904227Z,10/16/2024 19:20
0933d1b767c24766b60db24328ea599c,KING STREET NORTH,53.357197,-6.237334,34,6,40,OPEN,2024-10-16T18:39:52.905251Z,10/16/2024 19:20
fbe7f9ea2f654a5daf1d042b87d74c2b,KING STREET NORTH,53.341611,-6.247038,3,37,40,CLOSED,2024-10-16T18:24:52.905251Z,10/16/2024 19:20
3ad462e44139465abc387ef8bad30e4c,PEARSE STREET,53.345944,-6.254932,4,16,20,OPEN,2024-10-16T19:09:52.905251Z,10/16/2024 19:20
b9cd4538b2ec4e59b56524743bdced30,PEARSE STREET,53.338778,-6.234489,2,33,35,CLOSED,2024-10-16T18:35:52.905251Z,10/16/2024 19:20
6a99c41ed82c4ee39612f066fbecdf30,ST. STEPHEN'S GREEN,53.34441,-6.249975,2,18,20,OPEN,2024-10-16T18:43:52.905251Z,10/16/2024 19:20
fc1ec56273ea46d08da90b885a680451,PARNELL SQUARE,53.347489,-6.235921,24,1,25,OPEN,2024-10-16T18:24:52.905251Z,10/16/2024 19:20
9211b52538f64760b0105d6a7fa36266,WILTON TERRACE,53.353184,-6.266279,2,33,35,CLOSED,2024-10-16T18:58:52.905251Z,10/16/2024 19:20
07df2f2cd4f34a5f9ad12588313915b0,WILTON TERRACE,53.352082,-6.273677,16,9,25,OPEN,2024-10-16T18:51:52.905251Z,10/16/2024 19:20
894d839d7a534f29b0950d0b6b097e77,ST. STEPHEN'S GREEN,53.348843,-6.25021,28,2,30,OPEN,2024-10-16T19:15:52.905251Z,10/16/2024 19:20
91d9610979b24feb8214c1eff22e9b51,MOUNTJOY SQUARE,53.350152,-6.2593,8,12,20,OPEN,2024-10-16T18:43:52.905251Z,10/16/2024 19:20
e8a0463bfaa4430c9ba382f6c465e08d,MOUNTJOY SQUARE,53.35719,-6.274929,23,2,25,OPEN,2024-10-16T19:01:52.905251Z,10/16/2024 19:20
8407b20878924a5797176f35ee643add,KING STREET NORTH,53.35931,-6.279835,11,19,30,CLOSED,2024-10-16T18:49:52.905251Z,10/16/2024 19:20
d73ab620f8654040a894281d08c5d72f,HATCH STREET,53.343077,-6.239262,22,18,40,OPEN,2024-10-16T19:08:52.905251Z,10/16/2024 19:20
17e7a9415c0c492a95cc0bb5c774f382,PEARSE STREET,53.334463,-6.26729,3,17,20,CLOSED,2024-10-16T18:25:52.905251Z,10/16/2024 19:20
ec269031ffa14309866f30fd16954ca1,HATCH STREET,53.355717,-6.274963,10,10,20,CLOSED,2024-10-16T18:49:52.905251Z,10/16/2024 19:20
0643e6eb58be46e8a6584e9d01dcbe74,TALBOT STREET,53.345979,-6.234055,5,30,35,OPEN,2024-10-16T19:19:52.905251Z,10/16/2024 19:20
7c7da8f8f0994711be41d5680fd36533,KING STREET NORTH,53.340851,-6.23855,10,15,25,CLOSED,2024-10-16T18:30:52.905251Z,10/16/2024 19:20
ccce6f36f61a42c79072eb6eb92cdb9e,PARNELL SQUARE,53.339796,-6.271309,2,23,25,OPEN,2024-10-16T19:11:52.905251Z,10/16/2024 19:20
0f74f6792cfc4f3dafff8e6e079ca1ee,SMITHFIELD,53.350524,-6.262698,23,7,30,CLOSED,2024-10-16T18:42:52.905251Z,10/16/2024 19:20
dc40e7d4d3cd40e2be69735d1e1cecb9,ST. STEPHEN'S GREEN,53.350712,-6.250613,30,5,35,OPEN,2024-10-16T18:50:52.905251Z,10/16/2024 19:20
35ac690ec4bc472180590841fbf90e6f,KING STREET NORTH,53.353351,-6.265516,12,8,20,CLOSED,2024-10-16T18:38:52.905251Z,10/16/2024 19:20
6f0528a0c1df403c84e45e3bd91d3ce6,ST. STEPHEN'S GREEN,53.332524,-6.253638,24,6,30,OPEN,2024-10-16T18:27:52.905251Z,10/16/2024 19:20
e0f4bc03df86411cbe9b11e9482c8a30,PARNELL SQUARE,53.351399,-6.235457,8,12,20,CLOSED,2024-10-16T18:43:52.905251Z,10/16/2024 19:20
80ffabdbb84649d7bf2c11e13a44f191,SMITHFIELD,53.335902,-6.253574,19,1,20,CLOSED,2024-10-16T19:17:52.905251Z,10/16/2024 19:20
b9f5555975fc41939a507da05e9abf99,GRATTAN STREET,53.344962,-6.237961,32,3,35,OPEN,2024-10-16T19:06:52.905251Z,10/16/2024 19:20
0666701793bd4de583ec49ecc05d4582,ECCLES STREET,53.340782,-6.239792,10,25,35,OPEN,2024-10-16T18:42:52.905251Z,10/16/2024 19:20
877424d2796d48cda2dce05d88844bb1,PARNELL SQUARE,53.348759,-6.261103,11,24,35,OPEN,2024-10-16T19:10:52.905251Z,10/16/2024 19:20
4c6418b1de014003b92a2166e39f267b,GRATTAN STREET,53.347088,-6.276488,16,4,20,CLOSED,2024-10-16T19:08:52.905251Z,10/16/2024 19:20
b3074e374f074fe0a9cc3821d749f8b1,TALBOT STREET,53.35201,-6.278482,6,29,35,CLOSED,2024-10-16T18:36:52.905251Z,10/16/2024 19:20
01fe702e2bb2455485e3625065ca28f2,HIGH STREET,53.340026,-6.256107,15,5,20,CLOSED,2024-10-16T18:44:52.905251Z,10/16/2024 19:20
667ad598ad464328933c413693d6419c,MOUNTJOY SQUARE,53.351402,-6.271484,24,1,25,OPEN,2024-10-16T18:31:52.905251Z,10/16/2024 19:20
5eb6e9d2398545fabd8f6e0afbf1c235,HEUSTON STATION,53.358027,-6.246416,17,8,25,CLOSED,2024-10-16T18:31:52.905251Z,10/16/2024 19:20
485e3a6b3cb94fe5a8b950269b2a098d,HIGH STREET,53.357979,-6.274459,20,20,40,OPEN,2024-10-16T18:36:52.905251Z,10/16/2024 19:20
1013c1a234874f238d74c0a93e6919c3,ECCLES STREET,53.337493,-6.27359,0,20,20,CLOSED,2024-10-16T18:46:52.905251Z,10/16/2024 19:20
48d538e2351f42f495af0639bd95ac0f,HEUSTON STATION,53.350605,-6.235988,3,37,40,OPEN,2024-10-16T18:37:52.905251Z,10/16/2024 19:20
3686ffde7069475e8b48f343992c8117,SMITHFIELD,53.35384,-6.232306,1,39,40,OPEN,2024-10-16T19:15:52.905251Z,10/16/2024 19:20
5c6a953cc0944ce5a059ff9897ac8b30,MOUNTJOY SQUARE,53.332199,-6.251089,1,34,35,CLOSED,2024-10-16T19:01:52.905251Z,10/16/2024 19:20
b66bdce7882249479b40c6d6f1d87ad4,GRAND CANAL DOCK,53.347119,-6.252718,3,32,35,CLOSED,2024-10-16T18:30:52.905251Z,10/16/2024 19:20
2e996de0f64c44a5bd8ba764f5fb9c51,PARNELL SQUARE,53.348074,-6.243132,35,0,35,OPEN,2024-10-16T18:39:52.905251Z,10/16/2024 19:20
e35eb93fb24240c291d2715575bc3074,SMITHFIELD,53.354669,-6.274055,30,5,35,CLOSED,2024-10-16T19:16:52.905251Z,10/16/2024 19:20
bbad2a68345d4705a6e68e04714fabb0,WILTON TERRACE,53.351114,-6.233644,20,20,40,OPEN,2024-10-16T19:15:52.905251Z,10/16/2024 19:20
217b62fce528446eb0954cabe83138c3,GRATTAN STREET,53.345892,-6.270542,8,12,20,OPEN,2024-10-16T19:09:52.905251Z,10/16/2024 19:20
f2461230a0754d80b399b68ea88c33fe,HIGH STREET,53.330273,-6.253447,4,26,30,CLOSED,2024-10-16T18:31:52.905251Z,10/16/2024 19:20
5e1ac974382a43279ab0e697c9ad2bab,GRATTAN STREET,53.359334,-6.256195,2,28,30,CLOSED,2024-10-16T18:51:52.905251Z,10/16/2024 19:20
3de9280d25fc479d903f0417348e05da,HEUSTON STATION,53.352094,-6.248196,0,20,20,OPEN,2024-10-16T18:20:52.905251Z,10/16/2024 19:20
def15306826c45dbaecf458742cba8d9,MERRION SQUARE,53.330951,-6.233699,8,27,35,OPEN,2024-10-16T18:34:52.905251Z,10/16/2024 19:20
4f181ed10e4f4d7d82a7f934d7d758a9,TALBOT STREET,53.330825,-6.262317,15,5,20,CLOSED,2024-10-16T19:07:52.905251Z,10/16/2024 19:20
da87d014ea184f278cccd76d7ab6b56e,WILTON TERRACE,53.336163,-6.24164,28,7,35,CLOSED,2024-10-16T18:41:52.905251Z,10/16/2024 19:20
eb21f09f7b344a4e857d16ee7e4dac3f,MOUNTJOY SQUARE,53.347344,-6.238753,3,27,30,OPEN,2024-10-16T18:42:52.905251Z,10/16/2024 19:20
b62280199c20488fb459dcf0980081e7,PARNELL SQUARE,53.342512,-6.270757,1,24,25,CLOSED,2024-10-16T19:09:52.905251Z,10/16/2024 19:20
2e84fda09e124baeb6f0db0e219edffd,WILTON TERRACE,53.345097,-6.264344,20,20,40,CLOSED,2024-10-16T18:26:52.905251Z,10/16/2024 19:20
08d3ee1b922845e6a486ada863b8b41f,GRATTAN STREET,53.337074,-6.248842,15,15,30,CLOSED,2024-10-16T18:25:52.905251Z,10/16/2024 19:20
fcf4b86eae0a46eb96ce30c480a52d4b,HIGH STREET,53.348576,-6.251637,40,0,40,OPEN,2024-10-16T18:46:52.905251Z,10/16/2024 19:20
fc10b3ae6caf4dcaa490b179274b432d,GRAND CANAL DOCK,53.344155,-6.235829,10,10,20,CLOSED,2024-10-16T19:17:52.905251Z,10/16/2024 19:20
9f633be8180945a6bf36543bf014b369,GRATTAN STREET,53.334138,-6.273553,21,9,30,CLOSED,2024-10-16T18:41:52.905251Z,10/16/2024 19:20
6fcfe7cebb2e467d9a607f62e720d5c8,PARNELL SQUARE,53.339512,-6.278483,18,2,20,OPEN,2024-10-16T18:45:52.905251Z,10/16/2024 19:20
9ed37d3c731640ec9d410919f875a243,ST. STEPHEN'S GREEN,53.348415,-6.271545,4,36,40,CLOSED,2024-10-16T19:01:52.905251Z,10/16/2024 19:20
8131542ba533412ba23e133ad394c8bf,HATCH STREET,53.347201,-6.247022,17,13,30,OPEN,2024-10-16T19:06:52.905251Z,10/16/2024 19:20
c245e419aed845e1a3fd94b537c199b2,WILTON TERRACE,53.352733,-6.279197,13,22,35,CLOSED,2024-10-16T18:26:52.905251Z,10/16/2024 19:20
733534cdb6174f8fae54531df7acc146,MERRION SQUARE,53.336406,-6.245074,26,9,35,CLOSED,2024-10-16T18:59:52.905251Z,10/16/2024 19:20
68f390e3158d440f83bc6d4b82c989d8,KING STREET NORTH,53.341947,-6.26289,29,1,30,OPEN,2024-10-16T18:39:52.905251Z,10/16/2024 19:20
c3e43d9297ae40d88fb22350b7bd1425,SMITHFIELD,53.333619,-6.231357,2,18,20,CLOSED,2024-10-16T18:52:52.905251Z,10/16/2024 19:20
1f484f1daab6495483e635d46bb104ad,MOUNTJOY SQUARE,53.34093,-6.259386,1,29,30,CLOSED,2024-10-16T19:10:52.905251Z,10/16/2024 19:20
3f80f2b4ed4a4c5ebbe59a365dea38df,MERRION SQUARE,53.339927,-6.257654,7,18,25,CLOSED,2024-10-16T18:49:52.905251Z,10/16/2024 19:20
04472dedf39d49a9a1c31bb4c0c120ef,SMITHFIELD,53.359976,-6.278261,27,13,40,OPEN,2024-10-16T19:09:52.905251Z,10/16/2024 19:20
0f2d3985adf74b90969f7b6bd7dd3fe5,PARNELL SQUARE,53.341327,-6.230165,28,2,30,CLOSED,2024-10-16T19:15:52.905251Z,10/16/2024 19:20
2118e2e560814431a73a15bc3bf2a187,TALBOT STREET,53.340244,-6.242126,30,5,35,CLOSED,2024-10-16T18:57:52.905251Z,10/16/2024 19:20
59e4f4bb1ebc424397ef6962de651537,TALBOT STREET,53.340582,-6.269408,2,28,30,CLOSED,2024-10-16T18:56:52.905251Z,10/16/2024 19:20
dc90708b92c3407d87b50be39c7ac7d0,PEARSE STREET,53.343588,-6.250997,26,14,40,OPEN,2024-10-16T18:33:52.905251Z,10/16/2024 19:20
fd5aa9f037d64c95b5fa72f95e904cbc,ST. STEPHEN'S GREEN,53.359919,-6.272598,22,3,25,CLOSED,2024-10-16T19:02:52.905251Z,10/16/2024 19:20
f23dac612f2a4663b3b811f279bb6613,HIGH STREET,53.344078,-6.253645,28,2,30,CLOSED,2024-10-16T18:49:52.905251Z,10/16/2024 19:20
c82b7190479e4ff296c4c30c5dc09734,WILTON TERRACE,53.355021,-6.246974,18,2,20,CLOSED,2024-10-16T19:05:52.905251Z,10/16/2024 19:20
dd256dd37a204b10a6b3c59a9e72ef68,PARNELL SQUARE,53.343579,-6.250933,39,1,40,CLOSED,2024-10-16T18:40:52.905251Z,10/16/2024 19:20
d6de423191114fdba560390532dff962,HATCH STREET,53.338425,-6.248174,2,28,30,CLOSED,2024-10-16T19:02:52.906227Z,10/16/2024 19:20
a1bf85b159eb4dcc80da466b4b1582f5,MERRION SQUARE,53.356837,-6.278083,30,5,35,OPEN,2024-10-16T18:52:52.906227Z,10/16/2024 19:20
aa37f5c928c845a89a728b8318d94efd,HEUSTON STATION,53.338987,-6.250996,27,8,35,CLOSED,2024-10-16T19:11:52.906227Z,10/16/2024 19:20
7262e60eaac3442ca928066f0798475d,KING STREET NORTH,53.336878,-6.232764,10,15,25,OPEN,2024-10-16T18:22:52.906227Z,10/16/2024 19:20
9a4fc995d9454809863057d6c10426ff,KING STREET NORTH,53.34477,-6.25561,24,1,25,OPEN,2024-10-16T19:16:52.906227Z,10/16/2024 19:20
2a79626d909b47e2934cec8b4de99a28,TALBOT STREET,53.348912,-6.273432,18,2,20,CLOSED,2024-10-16T19:01:52.906227Z,10/16/2024 19:20
e3fdf6e7c61d4e748cbad834abc9108c,MOUNTJOY SQUARE,53.346034,-6.265792,5,15,20,CLOSED,2024-10-16T18:52:52.906227Z,10/16/2024 19:20
b88413e9014a41caa338d256e6da655f,PARNELL SQUARE,53.336789,-6.230528,20,15,35,CLOSED,2024-10-16T18:25:52.906227Z,10/16/2024 19:20
b6d5889aea3f414db63720c38080898b,HEUSTON STATION,53.352153,-6.267487,21,4,25,OPEN,2024-10-16T18:51:52.906227Z,10/16/2024 19:20
03a1c09eff9545d6b7730465b12e180a,ECCLES STREET,53.343202,-6.268571,16,4,20,OPEN,2024-10-16T19:06:52.906227Z,10/16/2024 19:20
626ffa6605bc45eca6bde52e610da4b6,ST. STEPHEN'S GREEN,53.342862,-6.275522,32,3,35,OPEN,2024-10-16T18:43:52.906227Z,10/16/2024 19:20
9a8b5ffbd90b4e62bb8d552e23aa3009,HIGH STREET,53.357695,-6.249995,10,30,40,CLOSED,2024-10-16T18:57:52.906227Z,10/16/2024 19:20
0fc134c859f54e19af89308274ebc3ff,GRATTAN STREET,53.346836,-6.246789,30,10,40,OPEN,2024-10-16T19:10:52.906227Z,10/16/2024 19:20
0b184f3ef6a34a68ac51a62157897f9b,PARNELL SQUARE,53.35395,-6.231472,8,22,30,OPEN,2024-10-16T18:58:52.906227Z,10/16/2024 19:20
d591b0c875094c7eb650ac3e1db9096a,ECCLES STREET,53.342573,-6.244234,18,7,25,OPEN,2024-10-16T19:16:52.906227Z,10/16/2024 19:20
b88934c1f6494b8dafef0ee81e39409c,KING STREET NORTH,53.34707,-6.277173,24,1,25,CLOSED,2024-10-16T18:31:52.906227Z,10/16/2024 19:20
cb0beb799e194189bc9e878eed9934fe,WILTON TERRACE,53.345559,-6.257527,13,7,20,OPEN,2024-10-16T18:20:52.906227Z,10/16/2024 19:20
08a4f493e93d4203a9381e974e097500,GRAND CANAL DOCK,53.342138,-6.258495,17,13,30,CLOSED,2024-10-16T18:39:52.906227Z,10/16/2024 19:20
18bd6cecf5d04f8dad4240eaf0b3650f,HATCH STREET,53.351073,-6.260862,10,10,20,OPEN,2024-10-16T18:55:52.906227Z,10/16/2024 19:20
f1bb099bf665451d8926eda7d961ba4a,PEARSE STREET,53.352667,-6.267281,29,6,35,CLOSED,2024-10-16T18:57:52.906227Z,10/16/2024 19:20
40d7da2136a043f59927ad9e27131311,KING STREET NORTH,53.340103,-6.258804,2,23,25,CLOSED,2024-10-16T19:08:52.906227Z,10/16/2024 19:20
ae7cdece5c6d437885731d4c2eb25e0e,HATCH STREET,53.348612,-6.257974,10,15,25,CLOSED,2024-10-16T18:59:52.906227Z,10/16/2024 19:20
e242a66181364accad08b4cf3676e997,WILTON TERRACE,53.358531,-6.232465,22,13,35,CLOSED,2024-10-16T18:33:52.906227Z,10/16/2024 19:20
9dc213d018b842ec9c66a0804f3ef865,GRATTAN STREET,53.344541,-6.250922,6,24,30,CLOSED,2024-10-16T19:08:52.906227Z,10/16/2024 19:20
123c40c5c3ab4d61a271f12e05c18500,GRAND CANAL DOCK,53.339314,-6.236849,1,19,20,CLOSED,2024-10-16T19:04:52.906227Z,10/16/2024 19:20
e06d5983daee435cac119ce01a0d2000,HATCH STREET,53.354645,-6.266985,20,20,40,CLOSED,2024-10-16T18:24:52.906227Z,10/16/2024 19:20
0a162517f7b145a8ac259785e83686ae,GRAND CANAL DOCK,53.332956,-6.271775,13,17,30,CLOSED,2024-10-16T19:15:52.906227Z,10/16/2024 19:20
49b7f071116b4f66b9a7039888ae2faa,KING STREET NORTH,53.337795,-6.266329,8,12,20,OPEN,2024-10-16T18:47:52.906227Z,10/16/2024 19:20
c95331baead247379d475b5c830f7002,ECCLES STREET,53.352103,-6.23563,21,9,30,OPEN,2024-10-16T18:37:52.906227Z,10/16/2024 19:20
b1dab3c2fc4f4999a2793581779d1ec6,ST. STEPHEN'S GREEN,53.330695,-6.253643,27,8,35,CLOSED,2024-10-16T18:38:52.906227Z,10/16/2024 19:20
4995d851b75f4892a4733fdc4f5d2524,MOUNTJOY SQUARE,53.330122,-6.251843,7,33,40,CLOSED,2024-10-16T18:59:52.906227Z,10/16/2024 19:20
3df79f90919544b582ab5bcb8d081105,ST. STEPHEN'S GREEN,53.335024,-6.244472,17,3,20,CLOSED,2024-10-16T18:21:52.906227Z,10/16/2024 19:20
973013adf9b34bf4a7c7dfb4887d8a7a,HEUSTON STATION,53.351204,-6.266077,23,7,30,CLOSED,2024-10-16T19:12:52.906227Z,10/16/2024 19:20
cbdb1a18e2d04fe69ae59ff58f65a0c5,ST. STEPHEN'S GREEN,53.343984,-6.257842,23,7,30,OPEN,2024-10-16T19:01:52.906227Z,10/16/2024 19:20
d7530a71dc85456693fed80397721057,HIGH STREET,53.338031,-6.253922,31,9,40,CLOSED,2024-10-16T19:14:52.906227Z,10/16/2024 19:20
d645581fe95b47dd8ad22feab0beb8a4,TALBOT STREET,53.347414,-6.254317,7,13,20,OPEN,2024-10-16T19:06:52.906227Z,10/16/2024 19:20
d18cf6b2481947a4be33ea96ba62338a,HIGH STREET,53.336738,-6.268601,34,6,40,OPEN,2024-10-16T19:00:52.906227Z,10/16/2024 19:20
67db0204fde04fc8be6a63113900470c,TALBOT STREET,53.343205,-6.27556,18,2,20,OPEN,2024-10-16T18:23:52.906227Z,10/16/2024 19:20
a6e4331077104ed5a99a6526480f24d6,MOUNTJOY SQUARE,53.334874,-6.24659,17,3,20,OPEN,2024-10-16T18:45:52.906227Z,10/16/2024 19:20
f4ff85c1437e44a3a48d0377379553ce,MERRION SQUARE,53.344934,-6.277232,24,11,35,OPEN,2024-10-16T18:27:52.906227Z,10/16/2024 19:20
50c10c3ea1304e3495973b7d9229fe33,ST. STEPHEN'S GREEN,53.347991,-6.258142,18,22,40,CLOSED,2024-10-16T18:45:52.906227Z,10/16/2024 19:20
017c3fa001114bb5ae6b8a524deeabb9,MOUNTJOY SQUARE,53.341959,-6.251557,26,9,35,CLOSED,2024-10-16T18:30:52.906227Z,10/16/2024 19:20
cf0038bcd397495b83a4732ce370d9f4,HATCH STREET,53.357828,-6.259374,4,26,30,OPEN,2024-10-16T19:13:52.906227Z,10/16/2024 19:20
51040ba9eb204ae68362332c903c62eb,SMITHFIELD,53.344112,-6.274025,7,28,35,OPEN,2024-10-16T19:06:52.906227Z,10/16/2024 19:20
b9a15864f3d545a7ad0852976c6fbc8b,KING STREET NORTH,53.345008,-6.271246,24,11,35,CLOSED,2024-10-16T19:01:52.906227Z,10/16/2024 19:20
d2e20e13debe4766813b24f279dc0d4a,MERRION SQUARE,53.34044,-6.275159,28,2,30,OPEN,2024-10-16T18:24:52.906227Z,10/16/2024 19:20
a60d1dbcdbbb45aeb74e7763d8e98de8,PARNELL SQUARE,53.343769,-6.26239,2,38,40,CLOSED,2024-10-16T19:12:52.906227Z,10/16/2024 19:20
c8f04637f9234cf5b469a1c13d1ae822,TALBOT STREET,53.356612,-6.231474,11,14,25,CLOSED,2024-10-16T18:54:52.906227Z,10/16/2024 19:20
b292e74e5b7641fbac90572d03e5acc7,SMITHFIELD,53.338607,-6.244406,13,22,35,OPEN,2024-10-16T19:05:52.906227Z,10/16/2024 19:20
22573358e41e4b2cb48d121db9b57360,MERRION SQUARE,53.336913,-6.279989,15,5,20,OPEN,2024-10-16T18:59:52.906227Z,10/16/2024 19:20
86d713b9963f4612a7424937e53440f3,PARNELL SQUARE,53.35682,-6.250626,6,19,25,CLOSED,2024-10-16T19:04:52.906227Z,10/16/2024 19:20
a997e4607d184a369f8317a15cf921f0,PARNELL SQUARE,53.349896,-6.23599,18,12,30,OPEN,2024-10-16T19:14:52.906227Z,10/16/2024 19:20
3024906bdd1c405c8356eae8a4aa72e0,WILTON TERRACE,53.355173,-6.243835,3,37,40,OPEN,2024-10-16T19:05:52.906227Z,10/16/2024 19:20
43ffea330fe948a586f7a34792fdfabf,WILTON TERRACE,53.333335,-6.233526,17,3,20,OPEN,2024-10-16T18:55:52.906227Z,10/16/2024 19:20
24490ec3b40141b180bd9bcfefd6bc69,SMITHFIELD,53.345342,-6.240983,2,38,40,CLOSED,2024-10-16T19:11:52.906227Z,10/16/2024 19:20
18a5d6121829420aac5dfc4542266de3,HIGH STREET,53.332579,-6.258642,19,1,20,CLOSED,2024-10-16T19:17:52.906227Z,10/16/2024 19:20
d6fa19d7edae43e9981e3fc0a9696629,HIGH STREET,53.341554,-6.258801,23,12,35,CLOSED,2024-10-16T18:39:52.906227Z,10/16/2024 19:20
fe381c1caaac4f539cf0fc17cfbbef81,ECCLES STREET,53.355483,-6.277505,12,8,20,OPEN,2024-10-16T19:17:52.906227Z,10/16/2024 19:20
b476dd07c9984145bf07f2b4119a53e3,GRATTAN STREET,53.358657,-6.254704,2,33,35,CLOSED,2024-10-16T18:43:52.906227Z,10/16/2024 19:20
83f516d95a7b46c5b210f515fad9dcbd,HEUSTON STATION,53.358037,-6.233666,2,23,25,CLOSED,2024-10-16T18:48:52.906227Z,10/16/2024 19:20
056c5880b9e3488c9bdfbcc10a27ba70,MOUNTJOY SQUARE,53.350613,-6.252325,16,9,25,OPEN,2024-10-16T18:49:52.906227Z,10/16/2024 19:20
52e5934792e84e189fc22553697dea4b,KING STREET NORTH,53.339766,-6.271216,1,24,25,CLOSED,2024-10-16T18:46:52.906227Z,10/16/2024 19:20
bb53d6ea16804efcb7eb9909c725478a,KING STREET NORTH,53.359658,-6.270142,4,31,35,CLOSED,2024-10-16T19:00:52.906227Z,10/16/2024 19:20
05b9df7febdd4846a63a511b36ab0bc6,HATCH STREET,53.346179,-6.262331,29,11,40,CLOSED,2024-10-16T18:26:52.906227Z,10/16/2024 19:20
21050d023dd74c94aad672fc1767bcce,HATCH STREET,53.331496,-6.268749,19,1,20,CLOSED,2024-10-16T18:27:52.906227Z,10/16/2024 19:20
65af317a5de84fba99001189e2cd5138,HIGH STREET,53.33094,-6.27279,7,28,35,OPEN,2024-10-16T19:04:52.906227Z,10/16/2024 19:20
0f712954c979463db792102571681152,HEUSTON STATION,53.342895,-6.275911,19,6,25,OPEN,2024-10-16T18:56:52.906227Z,10/16/2024 19:20
57a90d2ac8da40018534d3003806a46e,SMITHFIELD,53.335442,-6.234065,20,0,20,CLOSED,2024-10-16T18:30:52.906227Z,10/16/2024 19:20
86443893f4c1437f9146991ef33310b6,HIGH STREET,53.359203,-6.276865,20,0,20,OPEN,2024-10-16T18:27:52.906227Z,10/16/2024 19:20
8f3faab70c11435b8828d319b817c52f,HATCH STREET,53.359388,-6.262401,1,24,25,CLOSED,2024-10-16T18:25:52.906227Z,10/16/2024 19:20
617ace5e3538438d9bcea270059b3522,TALBOT STREET,53.354789,-6.273952,25,15,40,CLOSED,2024-10-16T18:55:52.906227Z,10/16/2024 19:20
bb325109d73c401285f524a7e989c8ca,TALBOT STREET,53.35438,-6.251092,15,25,40,CLOSED,2024-10-16T18:45:52.906227Z,10/16/2024 19:20
bed6efc45ada46b991dc83410a656253,ECCLES STREET,53.351959,-6.26353,14,26,40,OPEN,2024-10-16T18:27:52.906227Z,10/16/2024 19:20
784f56d66eac4342996c9c6235b25a2b,MERRION SQUARE,53.35254,-6.262966,15,10,25,OPEN,2024-10-16T18:39:52.906227Z,10/16/2024 19:20
e27a9c1d74fb4c3ca5d0e587d4d716ef,GRATTAN STREET,53.339955,-6.239939,13,27,40,CLOSED,2024-10-16T19:03:52.906227Z,10/16/2024 19:20
4fc164927aef4b489e439ab288940da7,MOUNTJOY SQUARE,53.351056,-6.232906,5,30,35,CLOSED,2024-10-16T19:13:52.906227Z,10/16/2024 19:20
fb054d2cc4744c9bb455da1938b1a8ac,SMITHFIELD,53.334724,-6.262053,1,29,30,CLOSED,2024-10-16T18:44:52.906227Z,10/16/2024 19:20
60b4cdc05f724d8d807f8950dbbce333,PARNELL SQUARE,53.331332,-6.247137,25,10,35,CLOSED,2024-10-16T18:47:52.906227Z,10/16/2024 19:20
eb7d478c605f4141b1630b88c571f24f,HATCH STREET,53.355406,-6.251169,15,5,20,CLOSED,2024-10-16T18:59:52.906227Z,10/16/2024 19:20
ed34aa14dae54a07a952ff101ba74892,ST. STEPHEN'S GREEN,53.334041,-6.230642,27,13,40,OPEN,2024-10-16T19:17:52.906227Z,10/16/2024 19:20
65c1d1f379594319a556b0987632bcba,KING STREET NORTH,53.356414,-6.243403,17,23,40,CLOSED,2024-10-16T19:13:52.906227Z,10/16/2024 19:20
a42e71e90e364097ab7ee22fd8e5a3c8,GRATTAN STREET,53.356414,-6.239551,19,21,40,CLOSED,2024-10-16T18:40:52.907243Z,10/16/2024 19:20
879a946083a649f0908463d46a151b12,MOUNTJOY SQUARE,53.332433,-6.25828,0,25,25,OPEN,2024-10-16T18:34:52.907243Z,10/16/2024 19:20
0dbbcb28fe184598ab5788e7524a7cbe,HEUSTON STATION,53.333059,-6.254418,30,5,35,OPEN,2024-10-16T18:21:52.907243Z,10/16/2024 19:20
dae4ba64a0c14ebe8fcf879814aefcee,HIGH STREET,53.346257,-6.23933,15,15,30,CLOSED,2024-10-16T19:19:52.907243Z,10/16/2024 19:20
9d959b92ad8c4b0182b5de55d939faa0,MERRION SQUARE,53.341142,-6.243224,0,20,20,CLOSED,2024-10-16T18:36:52.907243Z,10/16/2024 19:20
91dfa97c7e614f3c81212a35bfa85efc,HEUSTON STATION,53.333155,-6.234442,2,18,20,OPEN,2024-10-16T18:47:52.907243Z,10/16/2024 19:20
38521913633743208948bb7e51d370df,WILTON TERRACE,53.353478,-6.258445,1,19,20,CLOSED,2024-10-16T18:34:52.907243Z,10/16/2024 19:20
57103e0001ad481284849567ecaf72fe,ECCLES STREET,53.337669,-6.260696,26,9,35,CLOSED,2024-10-16T18:51:52.907243Z,10/16/2024 19:20
90dbb4f5b2dd47689b9e2788647f3ac5,HEUSTON STATION,53.358113,-6.23162,35,0,35,CLOSED,2024-10-16T18:28:52.907243Z,10/16/2024 19:20
e86d797747ce44be9212ef07ac5c1dca,PEARSE STREET,53.338975,-6.267952,24,1,25,CLOSED,2024-10-16T19:05:52.907243Z,10/16/2024 19:20
3752f8b08ace450094f24a45d7aac991,PARNELL SQUARE,53.337476,-6.246728,14,16,30,CLOSED,2024-10-16T19:14:52.907243Z,10/16/2024 19:20
313bcf8f1da844a7bab333f070d0f164,HIGH STREET,53.345085,-6.267895,32,3,35,CLOSED,2024-10-16T18:20:52.907243Z,10/16/2024 19:20
a3456f8f488e488eac18b29b8507ba8a,ST. STEPHEN'S GREEN,53.344893,-6.237966,0,30,30,OPEN,2024-10-16T19:03:52.907243Z,10/16/2024 19:20
9347577d4f9f4c8e96ae5c15b557500d,ST. STEPHEN'S GREEN,53.342551,-6.239199,13,17,30,OPEN,2024-10-16T19:17:52.907243Z,10/16/2024 19:20
4ac60fff5a3a4d5b8f47cafd5e780897,HEUSTON STATION,53.331169,-6.258831,26,9,35,CLOSED,2024-10-16T18:40:52.907243Z,10/16/2024 19:20
3aaf682b2fcd4522abe82279be910b24,KING STREET NORTH,53.359163,-6.248938,19,16,35,CLOSED,2024-10-16T19:04:52.907243Z,10/16/2024 19:20
28e26793234c456a81778588628f7b24,GRAND CANAL DOCK,53.352683,-6.253337,5,30,35,OPEN,2024-10-16T18:51:52.907243Z,10/16/2024 19:20
53ca42e951e24b128304ac6e7ada1a3c,MOUNTJOY SQUARE,53.347908,-6.257783,15,25,40,CLOSED,2024-10-16T18:37:52.907243Z,10/16/2024 19:20
036b57d1d7264490914da325af120811,HEUSTON STATION,53.351106,-6.241405,0,40,40,CLOSED,2024-10-16T18:38:52.907243Z,10/16/2024 19:20
11ff1312776348ac9874915c0455c09b,MERRION SQUARE,53.356908,-6.241921,14,11,25,CLOSED,2024-10-16T18:49:52.907243Z,10/16/2024 19:20
5e59fe5d306849189b561d1d9c8090b1,HATCH STREET,53.358995,-6.271778,19,1,20,OPEN,2024-10-16T18:32:52.907243Z,10/16/2024 19:20
456d7914b4dd4462bf1af9e9389e6297,MOUNTJOY SQUARE,53.340924,-6.2764,21,4,25,CLOSED,2024-10-16T18:58:52.907243Z,10/16/2024 19:20
61924986904e4761b8b5e281521b4d53,KING STREET NORTH,53.332056,-6.275012,13,12,25,CLOSED,2024-10-16T18:43:52.907243Z,10/16/2024 19:20
15fa24ea3f354a269680de43590c21c5,WILTON TERRACE,53.330715,-6.259632,21,19,40,CLOSED,2024-10-16T19:03:52.907243Z,10/16/2024 19:20
dfddd3b282e7402a9138632550219061,HEUSTON STATION,53.336056,-6.26554,6,14,20,OPEN,2024-10-16T18:27:52.907243Z,10/16/2024 19:20
13fc125e311c4e079bd23862469017c9,WILTON TERRACE,53.346746,-6.266131,20,5,25,CLOSED,2024-10-16T19:16:52.907243Z,10/16/2024 19:20
30b8be7c14c8442b9b227ed06ea79d1c,TALBOT STREET,53.337441,-6.253429,36,4,40,CLOSED,2024-10-16T18:53:52.907243Z,10/16/2024 19:20
ae0c3755237b42519dcb9f46e6b6147c,MOUNTJOY SQUARE,53.330285,-6.256009,3,22,25,CLOSED,2024-10-16T18:26:52.907243Z,10/16/2024 19:20
045e5f40fbb2498890ae1da263262fef,PARNELL SQUARE,53.333952,-6.250909,6,14,20,CLOSED,2024-10-16T19:15:52.907243Z,10/16/2024 19:20
96155cc6bc8c4787b9b390d836fbe01e,HEUSTON STATION,53.3456,-6.274745,11,29,40,OPEN,2024-10-16T18:33:52.907243Z,10/16/2024 19:20
a242f590df1f48f483810b2f5348139a,HIGH STREET,53.341453,-6.266927,31,4,35,CLOSED,2024-10-16T18:32:52.907243Z,10/16/2024 19:20
f9eeb839c3f44550b828b19668df9b59,MOUNTJOY SQUARE,53.357465,-6.251584,12,28,40,CLOSED,2024-10-16T19:07:52.907243Z,10/16/2024 19:20
83b43db831d04914ad83a2e33635c78e,KING STREET NORTH,53.346006,-6.241431,1,29,30,OPEN,2024-10-16T19:16:52.907243Z,10/16/2024 19:20
e7c57f7be4214be4ad5c61b067e1e374,HEUSTON STATION,53.338062,-6.257588,3,37,40,CLOSED,2024-10-16T19:00:52.907243Z,10/16/2024 19:20
fc5c7de5c082424c93e767684b9c2d3b,MERRION SQUARE,53.348047,-6.231439,17,18,35,OPEN,2024-10-16T18:51:52.907243Z,10/16/2024 19:20
48771fb64964435baee0f43cdcf9dfa5,PEARSE STREET,53.33336,-6.270038,15,10,25,CLOSED,2024-10-16T18:47:52.907243Z,10/16/2024 19:20
358c235e2b0f4c24894b32f3e24f0e17,GRAND CANAL DOCK,53.356731,-6.254844,7,13,20,CLOSED,2024-10-16T18:43:52.907243Z,10/16/2024 19:20
0f34d2840b20423681babd68ca5bade8,HATCH STREET,53.337731,-6.23606,10,10,20,CLOSED,2024-10-16T18:27:52.907243Z,10/16/2024 19:20
08f9b35ee86d4579b1b122312c036e81,KING STREET NORTH,53.334383,-6.261431,19,6,25,CLOSED,2024-10-16T18:28:52.907243Z,10/16/2024 19:20
cc26e5001be14f7986c1def8550d61f8,TALBOT STREET,53.353977,-6.264669,28,2,30,CLOSED,2024-10-16T18:56:52.907243Z,10/16/2024 19:20
bb9e4141eca24db48264bf4ab4490a97,HATCH STREET,53.352674,-6.271724,35,0,35,OPEN,2024-10-16T18:51:52.907243Z,10/16/2024 19:20
0b244f9c16534aec86396af5826bca1e,WILTON TERRACE,53.33591,-6.251769,9,26,35,CLOSED,2024-10-16T19:16:52.907243Z,10/16/2024 19:20
920ed0c0af1c4bb6bac76b99e7f3e7f0,ECCLES STREET,53.337194,-6.231532,20,5,25,CLOSED,2024-10-16T19:09:52.907243Z,10/16/2024 19:20
026d93c1495349e398d2cef77f93b767,MERRION SQUARE,53.33541,-6.244949,30,0,30,CLOSED,2024-10-16T18:52:52.907243Z,10/16/2024 19:20
17f98a890e4145d5b559bb9217e1af50,KING STREET NORTH,53.346933,-6.233056,19,16,35,CLOSED,2024-10-16T18:46:52.907243Z,10/16/2024 19:20
6bbfea43638f441dac0ea4170a92cec6,ECCLES STREET,53.357524,-6.27049,12,8,20,OPEN,2024-10-16T19:10:52.907243Z,10/16/2024 19:20
a454405e76ce49bc8d27d65037b97436,HIGH STREET,53.353849,-6.253405,8,22,30,CLOSED,2024-10-16T18:51:52.907243Z,10/16/2024 19:20
25c617bd2a87458b90602f9dded6ec10,GRAND CANAL DOCK,53.352806,-6.264869,18,7,25,OPEN,2024-10-16T19:17:52.907243Z,10/16/2024 19:20
aea2adbd2e59458b891ae8d14e5cf182,MOUNTJOY SQUARE,53.342339,-6.251999,29,11,40,OPEN,2024-10-16T18:34:52.907243Z,10/16/2024 19:20
b9c28d8fbbcf4ce5b45aeb552252d4fc,HEUSTON STATION,53.335351,-6.251263,11,9,20,OPEN,2024-10-16T18:54:52.907243Z,10/16/2024 19:20
958c477690af415094146d6accf93834,KING STREET NORTH,53.350569,-6.265155,11,9,20,CLOSED,2024-10-16T18:20:52.907243Z,10/16/2024 19:20
d65d45510d2c4c76a164016046a9a32a,PARNELL SQUARE,53.34489,-6.253964,28,7,35,OPEN,2024-10-16T19:07:52.907243Z,10/16/2024 19:20
d023105ceb734cd7a090a1e08fb125ac,HEUSTON STATION,53.347937,-6.260124,8,17,25,OPEN,2024-10-16T18:58:52.907243Z,10/16/2024 19:20
2699653391b24c5bbe6eb34d88914653,ST. STEPHEN'S GREEN,53.332991,-6.248155,19,6,25,CLOSED,2024-10-16T19:03:52.907243Z,10/16/2024 19:20
67fad341d1ef4c8b98aa5f14abedbb8b,SMITHFIELD,53.359764,-6.276682,11,29,40,CLOSED,2024-10-16T18:55:52.907243Z,10/16/2024 19:20
c02ae5b1e4654eca9ca2fca0014c1924,PEARSE STREET,53.343722,-6.259111,0,30,30,CLOSED,2024-10-16T18:27:52.907243Z,10/16/2024 19:20
01ed95df457e41299cb55f8911ee9dc2,PARNELL SQUARE,53.342059,-6.243723,12,18,30,OPEN,2024-10-16T19:14:52.907243Z,10/16/2024 19:20
9c7b6dac87bb4b78938a5ac776237b56,HEUSTON STATION,53.332324,-6.24975,32,8,40,CLOSED,2024-10-16T18:39:52.907243Z,10/16/2024 19:20
72a4f9ddee4d491d91dcbdef410fa10c,GRATTAN STREET,53.33868,-6.279015,9,21,30,OPEN,2024-10-16T18:38:52.907243Z,10/16/2024 19:20
63264151d85c4d74be4ae7fc6dc1d12f,MERRION SQUARE,53.348768,-6.231673,8,12,20,CLOSED,2024-10-16T19:06:52.907243Z,10/16/2024 19:20
cf55a2720177448b93b185870649297c,ST. STEPHEN'S GREEN,53.334736,-6.238012,22,8,30,CLOSED,2024-10-16T18:24:52.907243Z,10/16/2024 19:20
f234f981d6354219b83292c93ca4643b,ST. STEPHEN'S GREEN,53.348004,-6.269649,28,2,30,CLOSED,2024-10-16T18:33:52.907243Z,10/16/2024 19:20
430db442bbdb4f45b5542d108ba3c2ed,MERRION SQUARE,53.350588,-6.261817,13,12,25,OPEN,2024-10-16T19:02:52.907243Z,10/16/2024 19:20
e9449929cd4941c8ba924b4239fd107c,PARNELL SQUARE,53.346437,-6.23861,22,13,35,OPEN,2024-10-16T18:27:52.907243Z,10/16/2024 19:20
a2d6253d97c74e6aa1b6b18944a774ec,GRAND CANAL DOCK,53.331841,-6.277725,0,20,20,CLOSED,2024-10-16T19:00:52.907243Z,10/16/2024 19:20
d69a1e70173248c58173c0b272bde90b,HIGH STREET,53.349839,-6.24431,1,34,35,CLOSED,2024-10-16T19:06:52.907243Z,10/16/2024 19:20
c1135d3c065243d8848485373e543d53,GRAND CANAL DOCK,53.349,-6.242928,9,21,30,CLOSED,2024-10-16T18:24:52.907243Z,10/16/2024 19:20
88a4a14a0df049b6ab75358aa46a6a2d,ECCLES STREET,53.338549,-6.273684,16,19,35,CLOSED,2024-10-16T19:05:52.907243Z,10/16/2024 19:20
bb50a650435d44ffb6d92ed32a7cd91f,GRAND CANAL DOCK,53.347767,-6.252572,17,18,35,CLOSED,2024-10-16T18:41:52.907243Z,10/16/2024 19:20
04157971e1364860bd457e9dd19d0870,HEUSTON STATION,53.355581,-6.241616,18,12,30,CLOSED,2024-10-16T18:52:52.907243Z,10/16/2024 19:20
a31d6fa8e2e640bd8a2ed792c150f411,MOUNTJOY SQUARE,53.335417,-6.258484,20,0,20,OPEN,2024-10-16T19:16:52.907243Z,10/16/2024 19:20
e9231b0a4452405caeede617e87e04a9,ST. STEPHEN'S GREEN,53.340178,-6.270965,1,29,30,CLOSED,2024-10-16T18:55:52.907243Z,10/16/2024 19:20
f72ea1061d6741b9883fda125cf20eb9,MOUNTJOY SQUARE,53.332815,-6.253746,25,0,25,CLOSED,2024-10-16T18:55:52.907243Z,10/16/2024 19:20
aece25c037f74f2694028f3f785413ff,ECCLES STREET,53.352608,-6.235857,16,9,25,CLOSED,2024-10-16T18:43:52.907243Z,10/16/2024 19:20
e6ccb4e1923e4517bdbb3815e168d9a3,HIGH STREET,53.332073,-6.235027,29,1,30,OPEN,2024-10-16T18:59:52.907243Z,10/16/2024 19:20
b8a75ea0839a4547ae4d8dc5a4333b5e,ECCLES STREET,53.348686,-6.264385,19,6,25,CLOSED,2024-10-16T18:46:52.907243Z,10/16/2024 19:20
0060d46943fb428e84efc396af447aed,ST. STEPHEN'S GREEN,53.33577,-6.254983,10,10,20,CLOSED,2024-10-16T19:15:52.907243Z,10/16/2024 19:20
91ff42036573418c8999f8a5643199aa,WILTON TERRACE,53.344033,-6.268961,2,23,25,OPEN,2024-10-16T19:19:52.908244Z,10/16/2024 19:20
a94a69b75e3a4f6a841c04cc185b4978,SMITHFIELD,53.343857,-6.26184,13,12,25,CLOSED,2024-10-16T19:11:52.908244Z,10/16/2024 19:20
830ef01b2d52474fb7093bb240ed7810,HATCH STREET,53.340481,-6.267923,13,12,25,CLOSED,2024-10-16T18:20:52.908244Z,10/16/2024 19:20
8a0cc9737d6548cc844ede4fd2c08621,WILTON TERRACE,53.351642,-6.239504,23,2,25,CLOSED,2024-10-16T19:16:52.908244Z,10/16/2024 19:20
87c5eec2a5e34499997b28cea8f566d0,PARNELL SQUARE,53.3468,-6.248553,29,11,40,OPEN,2024-10-16T18:47:52.908244Z,10/16/2024 19:20
6323171e9fab4d71b3987cba62c8af32,GRATTAN STREET,53.335474,-6.234032,12,8,20,CLOSED,2024-10-16T19:05:52.908244Z,10/16/2024 19:20
b96c02d2310e403380d317216a2312ba,HEUSTON STATION,53.340755,-6.234179,15,25,40,OPEN,2024-10-16T18:41:52.908244Z,10/16/2024 19:20
bc44240385374dd99e82bfc2151a39d3,WILTON TERRACE,53.355934,-6.259607,30,0,30,CLOSED,2024-10-16T19:17:52.908244Z,10/16/2024 19:20
15c8a765895e4493954272c17dfaa1b3,ST. STEPHEN'S GREEN,53.33741,-6.253147,16,19,35,OPEN,2024-10-16T19:01:52.908244Z,10/16/2024 19:20
99c38b7897e641c2abdd10b395fe4543,SMITHFIELD,53.347668,-6.266521,21,9,30,OPEN,2024-10-16T19:10:52.908244Z,10/16/2024 19:20
a365c37e9af940d9b81574c8d3d93349,HIGH STREET,53.341266,-6.253994,5,15,20,OPEN,2024-10-16T18:25:52.908244Z,10/16/2024 19:20
2cb61b4fa39944b29ad66e1956d9525c,HIGH STREET,53.339002,-6.244047,0,40,40,CLOSED,2024-10-16T18:59:52.908244Z,10/16/2024 19:20
d42841c3791c4eb3815a4c0df3c7be64,PEARSE STREET,53.334581,-6.230108,15,25,40,OPEN,2024-10-16T19:03:52.908244Z,10/16/2024 19:20
ef658c17ca6a41e58c6671ac5989e626,TALBOT STREET,53.330664,-6.233888,7,13,20,OPEN,2024-10-16T19:17:52.908244Z,10/16/2024 19:20
cce4b8c5d4cd40cfa9fb8137c1391ca3,HATCH STREET,53.343948,-6.242367,4,21,25,OPEN,2024-10-16T19:02:52.908244Z,10/16/2024 19:20
c3ab9032855541e5a58552ccfc079541,MERRION SQUARE,53.355333,-6.236025,9,31,40,CLOSED,2024-10-16T18:23:52.908244Z,10/16/2024 19:20
de421b8205f14bac9de055abfa5bbf41,TALBOT STREET,53.344075,-6.239006,18,2,20,OPEN,2024-10-16T18:34:52.908244Z,10/16/2024 19:20
6c18f42ce6b248dba2dbdecbdbfa827e,PEARSE STREET,53.359038,-6.257012,8,17,25,OPEN,2024-10-16T18:21:52.908244Z,10/16/2024 19:20
e687e5c0e81f46debdd34aeaf81eb74e,HATCH STREET,53.342445,-6.248848,3,32,35,OPEN,2024-10-16T18:32:52.908244Z,10/16/2024 19:20
d5378e929aaf4c3ab8a828551f6e1b97,GRAND CANAL DOCK,53.350124,-6.25236,24,11,35,OPEN,2024-10-16T18:37:52.908244Z,10/16/2024 19:20
6c04cc86238041e3a7df89bc88233276,MERRION SQUARE,53.335211,-6.246487,13,22,35,CLOSED,2024-10-16T18:52:52.908244Z,10/16/2024 19:20
6dd6e405c5fe4acd828056b4145e66df,TALBOT STREET,53.345127,-6.247839,37,3,40,CLOSED,2024-10-16T19:08:52.908244Z,10/16/2024 19:20
057ae1b69a264ca7a72e766c9c96e760,MERRION SQUARE,53.359673,-6.231438,13,7,20,CLOSED,2024-10-16T18:45:52.908244Z,10/16/2024 19:20
2fa98e9b5f584837b4b3134c6c1e469a,SMITHFIELD,53.33208,-6.252044,29,1,30,OPEN,2024-10-16T18:58:52.908244Z,10/16/2024 19:20
46339fcd59294509b2258c1dc1351dcd,HEUSTON STATION,53.331059,-6.268998,1,19,20,CLOSED,2024-10-16T18:29:52.908244Z,10/16/2024 19:20
eb65dcc5499e4dad8c6e691463368297,TALBOT STREET,53.358811,-6.249724,3,17,20,OPEN,2024-10-16T19:02:52.908244Z,10/16/2024 19:20
47268eb7e30c4fe682101e40601f03f8,MOUNTJOY SQUARE,53.347655,-6.231927,21,14,35,CLOSED,2024-10-16T18:53:52.908244Z,10/16/2024 19:20
8ffaeea3efad498bbf5f52d63ec4dc0e,GRAND CANAL DOCK,53.353429,-6.26395,23,12,35,CLOSED,2024-10-16T18:24:52.908244Z,10/16/2024 19:20
12a0a0f10f6a4e8386efa3f356d599b5,ECCLES STREET,53.342088,-6.230845,8,32,40,OPEN,2024-10-16T18:56:52.908244Z,10/16/2024 19:20
f1fc4e85f3ba47ceabf183128b951496,SMITHFIELD,53.343814,-6.230758,13,27,40,OPEN,2024-10-16T18:49:52.908244Z,10/16/2024 19:20
2679ac58b64b473ebfdce3715f139c48,HEUSTON STATION,53.341706,-6.27199,31,4,35,CLOSED,2024-10-16T18:21:52.908244Z,10/16/2024 19:20
fa3f2a68ff8e42bbac16fad4a9507710,GRAND CANAL DOCK,53.336518,-6.252002,14,6,20,CLOSED,2024-10-16T18:30:52.908244Z,10/16/2024 19:20
46b2f7479ea54b02b048603dcfa817f8,GRAND CANAL DOCK,53.356541,-6.25161,38,2,40,OPEN,2024-10-16T18:57:52.908244Z,10/16/2024 19:20
0c797451939b48c687ebb0ef5bcfbc6a,GRAND CANAL DOCK,53.338863,-6.246102,24,16,40,OPEN,2024-10-16T19:01:52.908244Z,10/16/2024 19:20
0bdd56ebb8844d78b1192a41b8d783b1,PARNELL SQUARE,53.335626,-6.235302,27,13,40,CLOSED,2024-10-16T18:28:52.908244Z,10/16/2024 19:20
ac71052e63ad4b60b429062d326d6ae5,HEUSTON STATION,53.350924,-6.232401,3,32,35,OPEN,2024-10-16T19:13:52.908244Z,10/16/2024 19:20
f046367ac91a4b86b28627c4668a4df9,GRAND CANAL DOCK,53.350754,-6.247976,2,38,40,CLOSED,2024-10-16T19:02:52.908244Z,10/16/2024 19:20
8294be1c64484e40a83b4c012b2c0ad1,ECCLES STREET,53.339347,-6.267995,12,8,20,OPEN,2024-10-16T18:57:52.908244Z,10/16/2024 19:20
0d91e1b7faec418ca2361c1ea3bea2c5,HEUSTON STATION,53.350976,-6.267496,24,1,25,CLOSED,2024-10-16T18:30:52.908244Z,10/16/2024 19:20
07402f4874364e36823488aaea0269b7,HATCH STREET,53.335288,-6.252509,35,0,35,CLOSED,2024-10-16T18:20:52.908244Z,10/16/2024 19:20
a9b98fdbc0c8428683835ff8b927a9c7,KING STREET NORTH,53.346523,-6.266512,16,24,40,CLOSED,2024-10-16T18:39:52.908244Z,10/16/2024 19:20
5795333424f541528aea951be4987160,ECCLES STREET,53.332247,-6.264304,16,19,35,OPEN,2024-10-16T18:53:52.908244Z,10/16/2024 19:20
f5c28668ecb7423fa69e1373c0fa948a,HIGH STREET,53.341211,-6.240496,19,1,20,CLOSED,2024-10-16T18:31:52.908244Z,10/16/2024 19:20
a303f1e9d2c549299e2b13cfbef1f708,PEARSE STREET,53.355138,-6.236194,37,3,40,OPEN,2024-10-16T19:14:52.908244Z,10/16/2024 19:20
7587d2b93dbb45ce8dd7ce23a3e8f20a,TALBOT STREET,53.35599,-6.257042,7,28,35,CLOSED,2024-10-16T19:13:52.908244Z,10/16/2024 19:20
5a4b983a219b47e0bb11d593a495d93b,PEARSE STREET,53.342975,-6.251281,23,7,30,CLOSED,2024-10-16T18:29:52.908244Z,10/16/2024 19:20
246c3e0744fb4be98ddedbe5c60c763c,TALBOT STREET,53.339258,-6.276057,4,21,25,CLOSED,2024-10-16T18:46:52.908244Z,10/16/2024 19:20
670c539469ed42e7a08d725489dc710e,MERRION SQUARE,53.335344,-6.245547,5,20,25,CLOSED,2024-10-16T19:14:52.908244Z,10/16/2024 19:20
2a735f6e93b34146b5033e1d0ee47361,GRATTAN STREET,53.351048,-6.242673,25,5,30,CLOSED,2024-10-16T18:25:52.908244Z,10/16/2024 19:20
7a5f2bbf03e241b48562bcb15db9c7f2,ECCLES STREET,53.331947,-6.251419,25,5,30,OPEN,2024-10-16T18:48:52.908244Z,10/16/2024 19:20
63d566ba410a4e2ebbfdc24dc28b7e2f,KING STREET NORTH,53.334606,-6.276019,7,13,20,OPEN,2024-10-16T18:53:52.908244Z,10/16/2024 19:20
899092a830dd4067824236729e0d08a7,GRAND CANAL DOCK,53.339973,-6.278965,27,3,30,CLOSED,2024-10-16T19:06:52.908244Z,10/16/2024 19:20
ecf8ae50b5674636b3052fc5f423aff7,WILTON TERRACE,53.343958,-6.243692,24,1,25,CLOSED,2024-10-16T19:12:52.908244Z,10/16/2024 19:20
18f2b16c83de4af3a6f08220cc43a103,MOUNTJOY SQUARE,53.358194,-6.236499,18,22,40,CLOSED,2024-10-16T19:13:52.908244Z,10/16/2024 19:20
e76deba325f942848126ee362c95a471,KING STREET NORTH,53.351337,-6.263942,9,31,40,OPEN,2024-10-16T18:43:52.908244Z,10/16/2024 19:20
69ea055902624451b1d6a385942d472a,ST. STEPHEN'S GREEN,53.337443,-6.246757,26,9,35,OPEN,2024-10-16T18:28:52.908244Z,10/16/2024 19:20
20f7c353bc75430b943759ad04c01ab1,HATCH STREET,53.337016,-6.243618,0,35,35,OPEN,2024-10-16T18:20:52.908244Z,10/16/2024 19:20
87359b492277407784f9df5b87b85665,KING STREET NORTH,53.351469,-6.271507,30,10,40,OPEN,2024-10-16T19:01:52.908244Z,10/16/2024 19:20
452e95c325f8444c814b769b88aa4090,PEARSE STREET,53.348333,-6.261596,20,20,40,OPEN,2024-10-16T18:33:52.908244Z,10/16/2024 19:20
680c358eac26454daad5d4da2aaebd10,KING STREET NORTH,53.357482,-6.264434,30,10,40,CLOSED,2024-10-16T18:51:52.908244Z,10/16/2024 19:20
50c045ce278b40a28fb06cbe6b6d2526,PARNELL SQUARE,53.347644,-6.234777,13,27,40,OPEN,2024-10-16T18:39:52.908244Z,10/16/2024 19:20
f0a3c1d8552c4b51a12d3235ae3666fe,MOUNTJOY SQUARE,53.356999,-6.245399,22,3,25,CLOSED,2024-10-16T19:00:52.908244Z,10/16/2024 19:20
922eb9f15242446fa65f90ca19493a5a,HIGH STREET,53.346867,-6.257983,6,19,25,OPEN,2024-10-16T18:32:52.908244Z,10/16/2024 19:20
88c7a74bb5d94ec1ab1126dbe143605f,TALBOT STREET,53.347924,-6.25978,13,17,30,CLOSED,2024-10-16T18:47:52.908244Z,10/16/2024 19:20
64363373846c4558a0a920f53c58e95b,ECCLES STREET,53.349412,-6.263924,13,12,25,CLOSED,2024-10-16T18:59:52.908244Z,10/16/2024 19:20
ec1f96dd15394fd0809cfdbdfc99efcc,HEUSTON STATION,53.347938,-6.242189,18,22,40,CLOSED,2024-10-16T18:56:52.908244Z,10/16/2024 19:20
877f1a48198849db8a3eafd40cd347eb,TALBOT STREET,53.352515,-6.270492,16,24,40,OPEN,2024-10-16T18:29:52.908244Z,10/16/2024 19:20
c9fbba665fe1487e970beebd65e39c51,MOUNTJOY SQUARE,53.342834,-6.264948,12,23,35,OPEN,2024-10-16T18:53:52.908244Z,10/16/2024 19:20
b9bdeb2aeb504bb9811436c2ba50ebd4,HEUSTON STATION,53.331205,-6.230507,10,25,35,CLOSED,2024-10-16T18:39:52.908244Z,10/16/2024 19:20
ff0b893ea973471baff1ed8680105fc7,ECCLES STREET,53.356788,-6.27203,17,3,20,OPEN,2024-10-16T18:54:52.908244Z,10/16/2024 19:20
632ea46c89394ae4ba1ba035a648b741,GRAND CANAL DOCK,53.357111,-6.269313,13,12,25,CLOSED,2024-10-16T18:30:52.908244Z,10/16/2024 19:20
b44dc7691ec447bbb05081672b664cf4,ST. STEPHEN'S GREEN,53.341632,-6.24475,4,36,40,CLOSED,2024-10-16T19:04:52.908244Z,10/16/2024 19:20
9e04949fbbbc49a9b506f9b2b6c9a0ab,HATCH STREET,53.358654,-6.277691,10,20,30,CLOSED,2024-10-16T19:12:52.908244Z,10/16/2024 19:20
5395470494754b99b8b4719a750123ec,HEUSTON STATION,53.349771,-6.251995,12,28,40,OPEN,2024-10-16T18:43:52.908244Z,10/16/2024 19:20
56980eadc77f45b399b097548ff5a5f0,GRAND CANAL DOCK,53.344207,-6.231589,1,19,20,CLOSED,2024-10-16T19:15:52.908244Z,10/16/2024 19:20
14196e5deb824f0193f6276541d37f38,SMITHFIELD,53.334366,-6.25113,0,20,20,CLOSED,2024-10-16T19:16:52.908244Z,10/16/2024 19:20
d4ccd41de3bc4b48bcf7e11b86ac66ff,MOUNTJOY SQUARE,53.349862,-6.278809,6,19,25,CLOSED,2024-10-16T19:05:52.908244Z,10/16/2024 19:20
6579693bad224059af906fe10bb0298c,GRAND CANAL DOCK,53.348323,-6.239591,36,4,40,CLOSED,2024-10-16T19:14:52.908244Z,10/16/2024 19:20
4126f738fb944301b3373141b4bdc591,MERRION SQUARE,53.335441,-6.25435,12,18,30,OPEN,2024-10-16T18:52:52.908244Z,10/16/2024 19:20
82948400cef64e3f96e155982fa0e542,PEARSE STREET,53.341677,-6.251522,14,6,20,CLOSED,2024-10-16T19:10:52.908244Z,10/16/2024 19:20
073f6c910dc74181ab7ef30cb2a1fe8f,PEARSE STREET,53.351266,-6.274254,15,5,20,OPEN,2024-10-16T18:28:52.909243Z,10/16/2024 19:20
480e37b928804f9c9fa75c63dea271f0,ST. STEPHEN'S GREEN,53.356436,-6.272348,20,10,30,OPEN,2024-10-16T18:35:52.909243Z,10/16/2024 19:20
512772df7a6c4706a656746f15b86cd9,MOUNTJOY SQUARE,53.349522,-6.245852,0,20,20,OPEN,2024-10-16T19:13:52.909243Z,10/16/2024 19:20
3757b06f8cb442188469de435a4bd5aa,WILTON TERRACE,53.347998,-6.26322,15,20,35,OPEN,2024-10-16T19:00:52.909243Z,10/16/2024 19:20
dd3fd9b7da5d490aa9b63296aab2faee,GRATTAN STREET,53.353156,-6.259966,20,5,25,OPEN,2024-10-16T18:58:52.909243Z,10/16/2024 19:20
3faf7444a15043d7ab4b1aabd43f98a6,PARNELL SQUARE,53.34848,-6.255902,11,29,40,CLOSED,2024-10-16T19:13:52.909243Z,10/16/2024 19:20
f0949dae894d4a59828d55153a61a8c8,MERRION SQUARE,53.349115,-6.267092,14,6,20,OPEN,2024-10-16T18:27:52.909243Z,10/16/2024 19:20
6b360c2330884f179fe9f578fee27596,MOUNTJOY SQUARE,53.359853,-6.232631,23,2,25,OPEN,2024-10-16T18:54:52.909243Z,10/16/2024 19:20
8c1427e5f3ac4878ba20eb4be9fc229b,PEARSE STREET,53.334686,-6.262038,0,30,30,CLOSED,2024-10-16T18:59:52.909243Z,10/16/2024 19:20
115835d3df934013b9b68e46ffe7bbaa,MERRION SQUARE,53.359503,-6.248893,11,19,30,CLOSED,2024-10-16T18:20:52.909243Z,10/16/2024 19:20
ae920d7bb42c4e17b471686a89f247cb,PARNELL SQUARE,53.343195,-6.25504,27,3,30,OPEN,2024-10-16T18:34:52.909243Z,10/16/2024 19:20
4cf3e0fb4e7143c68a2bbf2ffe31c5ac,ST. STEPHEN'S GREEN,53.336446,-6.256402,24,6,30,OPEN,2024-10-16T18:39:52.909243Z,10/16/2024 19:20
a2c838ed4ae64beab7b90329b135da10,KING STREET NORTH,53.349619,-6.26389,7,13,20,OPEN,2024-10-16T19:19:52.909243Z,10/16/2024 19:20
b32bff95f12d48e6bcf6211aa4be323f,HEUSTON STATION,53.359245,-6.27408,35,5,40,CLOSED,2024-10-16T18:53:52.909243Z,10/16/2024 19:20
b96fb8e030294500ab2f8c05bebe6c81,ECCLES STREET,53.347957,-6.24808,21,14,35,OPEN,2024-10-16T19:09:52.909243Z,10/16/2024 19:20
f07a1323b5b24952ba0cc6da32f83313,HIGH STREET,53.341052,-6.267016,8,17,25,OPEN,2024-10-16T18:23:52.909243Z,10/16/2024 19:20
dcdccee8f54d4164b248f64557fb41a3,PEARSE STREET,53.348583,-6.267419,24,6,30,OPEN,2024-10-16T18:20:52.909243Z,10/16/2024 19:20
849325b1caa84341b90af4a477d698b0,SMITHFIELD,53.336619,-6.279097,19,11,30,CLOSED,2024-10-16T18:54:52.909243Z,10/16/2024 19:20
41dfe8c3adaf4bbaaffc71726e875f3f,HATCH STREET,53.35306,-6.252697,6,34,40,CLOSED,2024-10-16T19:03:52.909243Z,10/16/2024 19:20
4018479179ab4e7a827c1459b3f1ff09,TALBOT STREET,53.348379,-6.27724,39,1,40,CLOSED,2024-10-16T19:11:52.909243Z,10/16/2024 19:20
0ae62983476c4ca49d93f046f9841d80,PARNELL SQUARE,53.336734,-6.238606,9,16,25,CLOSED,2024-10-16T18:58:52.909243Z,10/16/2024 19:20
7a51d601684a46a18e01678980840d8e,HIGH STREET,53.334751,-6.241071,23,2,25,CLOSED,2024-10-16T18:51:52.909243Z,10/16/2024 19:20
c251e44ec6c742b4857a8fefe21f7bf8,MOUNTJOY SQUARE,53.348723,-6.253963,25,10,35,CLOSED,2024-10-16T19:07:52.909243Z,10/16/2024 19:20
64a56ac7ff4146aab10ddb722f1a3198,MOUNTJOY SQUARE,53.336896,-6.270739,29,11,40,OPEN,2024-10-16T18:46:52.909243Z,10/16/2024 19:20
4710f190de3c436eaf731eb8bbcf4ae2,GRATTAN STREET,53.344789,-6.259251,0,20,20,CLOSED,2024-10-16T18:37:52.909243Z,10/16/2024 19:20
99a7160ef3fe4766a9c96f5eac5b6614,ST. STEPHEN'S GREEN,53.345491,-6.278537,5,25,30,OPEN,2024-10-16T18:48:52.909243Z,10/16/2024 19:20
ee9dee671cb44cf6a9dd1d6517b82f71,ST. STEPHEN'S GREEN,53.350436,-6.235918,15,15,30,OPEN,2024-10-16T19:11:52.909243Z,10/16/2024 19:20
10b4aa32a95a4e9db731fbec6ed89d5f,HATCH STREET,53.330532,-6.277737,18,17,35,CLOSED,2024-10-16T18:30:52.909243Z,10/16/2024 19:20
29c97ea4543147fd8ce8f671060e0a30,PARNELL SQUARE,53.356486,-6.244002,7,18,25,OPEN,2024-10-16T18:41:52.909243Z,10/16/2024 19:20
4c0abca069134fa3a4c6ddf06873a515,ST. STEPHEN'S GREEN,53.333041,-6.25539,0,40,40,OPEN,2024-10-16T19:03:52.909243Z,10/16/2024 19:20
9d00bc186b334e799d20f963c1b283b5,MERRION SQUARE,53.353749,-6.256447,23,2,25,CLOSED,2024-10-16T18:46:52.909243Z,10/16/2024 19:20
5fe37b828bc444a192bb0cc6d51561d5,KING STREET NORTH,53.339875,-6.26313,3,32,35,OPEN,2024-10-16T18:23:52.909243Z,10/16/2024 19:20
8ef9f524ab024e26a4673995f1f1c52b,ST. STEPHEN'S GREEN,53.33883,-6.254916,30,10,40,OPEN,2024-10-16T18:40:52.909243Z,10/16/2024 19:20
c81fc0225ece4852b298bc566b7bb351,ST. STEPHEN'S GREEN,53.346843,-6.26116,3,22,25,OPEN,2024-10-16T19:10:52.909243Z,10/16/2024 19:20
749558c8540f443c9e05da7d11ff064c,GRATTAN STREET,53.341389,-6.264263,28,2,30,OPEN,2024-10-16T18:53:52.909243Z,10/16/2024 19:20
c09490dfbcae4487afd6fde1d3973e06,MOUNTJOY SQUARE,53.356524,-6.257174,0,20,20,CLOSED,2024-10-16T18:35:52.909243Z,10/16/2024 19:20
b91135f34ebf41c6a3d564a57f91473c,WILTON TERRACE,53.347951,-6.235511,17,8,25,OPEN,2024-10-16T18:52:52.909243Z,10/16/2024 19:20
9db6c87940514d3da7de41aa694c9b2e,HATCH STREET,53.342042,-6.242653,11,9,20,OPEN,2024-10-16T18:21:52.909243Z,10/16/2024 19:20
98b51a89157a4bbdae4d9c812bc9769f,TALBOT STREET,53.334255,-6.239396,4,36,40,CLOSED,2024-10-16T19:16:52.909243Z,10/16/2024 19:20
61d093bee6464c7c902db27ff335bdec,KING STREET NORTH,53.356228,-6.25149,12,23,35,OPEN,2024-10-16T18:35:52.909243Z,10/16/2024 19:20
4fbdd8d03cbe4e0c9a7a429cf31adcc9,WILTON TERRACE,53.345277,-6.251587,29,1,30,CLOSED,2024-10-16T19:05:52.909243Z,10/16/2024 19:20
9007e63a40154071ab01652ad24ce33b,TALBOT STREET,53.357797,-6.272616,24,6,30,OPEN,2024-10-16T18:20:52.909243Z,10/16/2024 19:20
eb44e8fc918444298f1d895b4cbeafd1,TALBOT STREET,53.335238,-6.24286,23,7,30,OPEN,2024-10-16T18:41:52.909243Z,10/16/2024 19:20
91acb0fca2a542a5bd82aca3a10e6f0b,HEUSTON STATION,53.345577,-6.276111,32,8,40,CLOSED,2024-10-16T18:24:52.909243Z,10/16/2024 19:20
0e7d6c19f30144849753efb9227488bd,HEUSTON STATION,53.337608,-6.249819,14,21,35,OPEN,2024-10-16T19:15:52.909243Z,10/16/2024 19:20
59ce0e5830b243d9bb791b8262bc7789,MOUNTJOY SQUARE,53.332229,-6.235077,22,8,30,CLOSED,2024-10-16T18:38:52.909243Z,10/16/2024 19:20
feb5575a3b2c4443856e27a4cca90f06,PEARSE STREET,53.358336,-6.259017,10,25,35,OPEN,2024-10-16T18:58:52.909243Z,10/16/2024 19:20
fd6825774c57486db81950a48480de24,KING STREET NORTH,53.359599,-6.232637,25,5,30,CLOSED,2024-10-16T19:10:52.909243Z,10/16/2024 19:20
a3e5d25568b541f897e5b9db60ee7228,MERRION SQUARE,53.356589,-6.239659,2,28,30,OPEN,2024-10-16T18:52:52.909243Z,10/16/2024 19:20
e5d3d5a0268947609cc0c9a3d7ffc5e4,HATCH STREET,53.348294,-6.234463,38,2,40,CLOSED,2024-10-16T18:56:52.909243Z,10/16/2024 19:20
f6dcf74cb6c7463a8f174552e919bb80,PARNELL SQUARE,53.35533,-6.254771,32,8,40,CLOSED,2024-10-16T18:52:52.909243Z,10/16/2024 19:20
10e1d22b801748ffa26eb2f30227e0fe,TALBOT STREET,53.336241,-6.237259,14,6,20,OPEN,2024-10-16T19:18:52.909243Z,10/16/2024 19:20
96a78046c3914da1ae84d02734685088,MERRION SQUARE,53.33702,-6.233507,10,15,25,OPEN,2024-10-16T18:23:52.909243Z,10/16/2024 19:20
2a6bd137ceba4c68999f09238823cb47,HEUSTON STATION,53.332269,-6.262368,6,14,20,CLOSED,2024-10-16T18:57:52.909243Z,10/16/2024 19:20
188a23fdc49f41f09a43bbb5bc6341ab,GRATTAN STREET,53.34687,-6.232794,10,25,35,OPEN,2024-10-16T18:23:52.909243Z,10/16/2024 19:20
80a377dc4f6d42829b8fd949ce9f3822,HIGH STREET,53.334648,-6.239561,21,4,25,OPEN,2024-10-16T19:05:52.909243Z,10/16/2024 19:20
2bbd74e17763494588c08fa1f5942a15,MERRION SQUARE,53.342411,-6.248722,27,3,30,CLOSED,2024-10-16T19:04:52.909243Z,10/16/2024 19:20
6ca56b25910f47b095ef577bec2a5d34,MERRION SQUARE,53.340589,-6.240347,6,14,20,OPEN,2024-10-16T18:45:52.909243Z,10/16/2024 19:20
c919a51a17c145e39bd798ceaa8a5cce,KING STREET NORTH,53.352946,-6.241673,25,15,40,OPEN,2024-10-16T18:36:52.909243Z,10/16/2024 19:20
d8206b4cca244c8f8ea563f36308b27d,SMITHFIELD,53.35471,-6.261293,13,7,20,OPEN,2024-10-16T19:01:52.909243Z,10/16/2024 19:20
e13df2109ecb4dd59fd7b75db26d8105,ECCLES STREET,53.357416,-6.275152,4,21,25,OPEN,2024-10-16T18:29:52.909243Z,10/16/2024 19:20
adbd9af8190042f3a88b17a8b8d2187e,GRATTAN STREET,53.353833,-6.255386,24,1,25,OPEN,2024-10-16T18:49:52.909243Z,10/16/2024 19:20
5541116e4d514ddb87894c9823e07cf3,TALBOT STREET,53.351373,-6.271944,28,2,30,CLOSED,2024-10-16T18:52:52.909243Z,10/16/2024 19:20
35e6ad221f78423f8429c65a3bc340d6,KING STREET NORTH,53.358659,-6.245198,11,14,25,CLOSED,2024-10-16T18:32:52.909243Z,10/16/2024 19:20
a2d76196257c4e2ea4c233438c1db5d4,TALBOT STREET,53.354874,-6.259159,12,8,20,OPEN,2024-10-16T19:16:52.909243Z,10/16/2024 19:20
8c09cb31b2b44d6da54b64f894f8230f,MERRION SQUARE,53.347193,-6.273519,8,12,20,OPEN,2024-10-16T19:11:52.909243Z,10/16/2024 19:20
d994a48b6b8b43be8807ce30af871a07,HATCH STREET,53.337637,-6.251723,16,19,35,CLOSED,2024-10-16T18:50:52.909243Z,10/16/2024 19:20
948e1e333a6c4415939859769861b8eb,HEUSTON STATION,53.346346,-6.247474,7,13,20,OPEN,2024-10-16T18:25:52.909243Z,10/16/2024 19:20
82f335a6daea4e10b80bb3875f32993e,TALBOT STREET,53.356894,-6.246659,9,11,20,CLOSED,2024-10-16T18:20:52.909243Z,10/16/2024 19:20
541372fef88745958866c7fb29bae43d,WILTON TERRACE,53.347113,-6.242212,1,29,30,CLOSED,2024-10-16T18:40:52.909243Z,10/16/2024 19:20
0bea9c3ae62d457392500e6cb050cb7e,MERRION SQUARE,53.345639,-6.230929,17,18,35,CLOSED,2024-10-16T18:50:52.909243Z,10/16/2024 19:20
49f860482e1b467ea46a410ed857f83e,SMITHFIELD,53.353872,-6.235104,13,7,20,OPEN,2024-10-16T18:58:52.909243Z,10/16/2024 19:20
6beb29115936433cbd909dee7afd350b,GRAND CANAL DOCK,53.333507,-6.238373,32,3,35,OPEN,2024-10-16T18:24:52.909243Z,10/16/2024 19:20
977a993023934e08b847ebcb6425c916,KING STREET NORTH,53.338975,-6.267805,3,37,40,CLOSED,2024-10-16T19:03:52.909243Z,10/16/2024 19:20
23ee188b2e0b43d18cd30adfb81c9833,GRAND CANAL DOCK,53.334191,-6.23315,24,1,25,CLOSED,2024-10-16T19:07:52.909243Z,10/16/2024 19:20
c5c0b33971484fb8abcd2a684cdea961,WILTON TERRACE,53.332912,-6.25876,28,2,30,OPEN,2024-10-16T18:36:52.909243Z,10/16/2024 19:20
6f4e3d5795a846a3b0ee6b80284e30dc,WILTON TERRACE,53.345827,-6.258619,12,18,30,OPEN,2024-10-16T18:58:52.909243Z,10/16/2024 19:20
f39f222329d646f4a469b9479d4789e8,PARNELL SQUARE,53.336833,-6.243373,1,39,40,OPEN,2024-10-16T19:10:52.909243Z,10/16/2024 19:20
6303dc680d0d42f79133f48353dc631f,ST. STEPHEN'S GREEN,53.332111,-6.271055,3,37,40,CLOSED,2024-10-16T19:00:52.909243Z,10/16/2024 19:20
abd41b5dc5e84c0b908f18feddb59cf6,SMITHFIELD,53.351189,-6.269484,2,38,40,OPEN,2024-10-16T18:25:52.909243Z,10/16/2024 19:20
a0dba99762fd4551bf35f19a943654cd,HATCH STREET,53.353977,-6.252993,19,6,25,CLOSED,2024-10-16T18:57:52.909243Z,10/16/2024 19:20
13f6a8358184499dbcbaaf4de6fb5bc6,ECCLES STREET,53.346532,-6.277683,7,13,20,CLOSED,2024-10-16T18:41:52.910243Z,10/16/2024 19:20
6fcb85d40da24023a1325b0baea3ccf1,SMITHFIELD,53.332666,-6.232906,22,13,35,CLOSED,2024-10-16T18:22:52.910243Z,10/16/2024 19:20
2279571c226c414a8d1626ac4f1dd8e0,ECCLES STREET,53.35839,-6.278689,25,0,25,OPEN,2024-10-16T18:22:52.910243Z,10/16/2024 19:20
b1be24332dd245bf8022053eef05415f,MOUNTJOY SQUARE,53.333344,-6.260891,1,39,40,OPEN,2024-10-16T18:48:52.910243Z,10/16/2024 19:20
6f4873299bfa44d387541281795d1c9a,HIGH STREET,53.343334,-6.270662,19,21,40,CLOSED,2024-10-16T18:31:52.910243Z,10/16/2024 19:20
658996851a844cd89102f9c08cd0eca0,MOUNTJOY SQUARE,53.352134,-6.268983,17,3,20,CLOSED,2024-10-16T19:15:52.910243Z,10/16/2024 19:20
3302c7b386d6408781bb157ae2a3303a,TALBOT STREET,53.356613,-6.26412,29,11,40,CLOSED,2024-10-16T18:33:52.910243Z,10/16/2024 19:20
c252ee709ac8473cbd8cbbf857bed674,SMITHFIELD,53.346957,-6.263852,12,13,25,CLOSED,2024-10-16T18:43:52.910243Z,10/16/2024 19:20
e912b6003005423f8e63f4a77521c585,WILTON TERRACE,53.358188,-6.262151,13,27,40,CLOSED,2024-10-16T18:26:52.910243Z,10/16/2024 19:20
ad1e6ab1b99442b1b23caa9d4956c1c8,HATCH STREET,53.358789,-6.268907,19,11,30,OPEN,2024-10-16T18:48:52.910243Z,10/16/2024 19:20
f216f67146bb4a89ab2e13a90029b6a6,HEUSTON STATION,53.335167,-6.242856,17,13,30,CLOSED,2024-10-16T19:16:52.910243Z,10/16/2024 19:20
712ea92f1e184cec9a7f04e45a581026,PEARSE STREET,53.352112,-6.262666,15,25,40,CLOSED,2024-10-16T18:49:52.910243Z,10/16/2024 19:20
baee1898ef1e49ae91c30285ab613f79,HIGH STREET,53.331886,-6.268668,0,30,30,OPEN,2024-10-16T18:53:52.910243Z,10/16/2024 19:20
863466b718744efcafdaa0095e42b37b,MERRION SQUARE,53.332583,-6.253162,2,18,20,CLOSED,2024-10-16T19:17:52.910243Z,10/16/2024 19:20
a26b0a1041334f15b2826325397ce415,GRAND CANAL DOCK,53.337918,-6.236585,3,27,30,OPEN,2024-10-16T18:36:52.910243Z,10/16/2024 19:20
7ef7577d67664dfeb798b2e17c3a19b8,HEUSTON STATION,53.343201,-6.250589,11,19,30,CLOSED,2024-10-16T18:58:52.910243Z,10/16/2024 19:20
b1a956bb38194a5f9b5a2f2f1c665a2d,TALBOT STREET,53.33995,-6.279286,23,2,25,OPEN,2024-10-16T19:01:52.910243Z,10/16/2024 19:20
ee55dad2b76d4125bfc257e72ce068da,PEARSE STREET,53.335716,-6.270835,29,1,30,CLOSED,2024-10-16T18:44:52.910243Z,10/16/2024 19:20
88a33d182d8c4ca6973217f6e4566a8e,TALBOT STREET,53.330622,-6.276803,38,2,40,CLOSED,2024-10-16T19:14:52.910243Z,10/16/2024 19:20
82c2d40ad1694c4c8beb2b1b9dcb82e1,ST. STEPHEN'S GREEN,53.342945,-6.248398,12,23,35,CLOSED,2024-10-16T18:32:52.910243Z,10/16/2024 19:20
3df37997c66848ffaa2b5ee8e1444cf3,KING STREET NORTH,53.330031,-6.244428,0,20,20,OPEN,2024-10-16T18:39:52.910243Z,10/16/2024 19:20
b7de4fc24a594225ac866939c76e14a4,ST. STEPHEN'S GREEN,53.343606,-6.271757,7,28,35,CLOSED,2024-10-16T18:33:52.910243Z,10/16/2024 19:20
dd2c15acebb94ebe943478f013c622ad,MOUNTJOY SQUARE,53.342871,-6.257755,10,15,25,CLOSED,2024-10-16T18:37:52.910243Z,10/16/2024 19:20
9b209c12ecd943baa6f5dfb66c9d9a10,HEUSTON STATION,53.331677,-6.273663,17,13,30,OPEN,2024-10-16T18:45:52.910243Z,10/16/2024 19:20
247a515587b5438fac5ccb81d870e105,PARNELL SQUARE,53.354555,-6.251744,1,29,30,CLOSED,2024-10-16T18:21:52.910243Z,10/16/2024 19:20
9802ab0732d448e282d257c5b7db0639,PEARSE STREET,53.34005,-6.262281,22,8,30,CLOSED,2024-10-16T18:20:52.910243Z,10/16/2024 19:20
93c06d33554145c284635c5583b8d88d,HEUSTON STATION,53.33054,-6.264242,12,18,30,OPEN,2024-10-16T18:37:52.910243Z,10/16/2024 19:20
2d31f7cc3c01489496ad379f74d706bb,TALBOT STREET,53.3402,-6.25132,20,5,25,CLOSED,2024-10-16T18:31:52.910243Z,10/16/2024 19:20
c9de68f40ebe4341a53a5791c0f3a5cf,PEARSE STREET,53.350306,-6.256137,24,6,30,CLOSED,2024-10-16T18:38:52.910243Z,10/16/2024 19:20
e6a5dee02d3b4767836de747ee77ca8c,GRATTAN STREET,53.340616,-6.254815,22,8,30,OPEN,2024-10-16T18:59:52.910243Z,10/16/2024 19:20
46b93060c6ca431cb2b6e285a0cd93d0,GRAND CANAL DOCK,53.352835,-6.276268,6,29,35,CLOSED,2024-10-16T18:51:52.910243Z,10/16/2024 19:20
e530dd5e5c46429981cc5511abe3b019,HIGH STREET,53.339914,-6.238087,16,14,30,CLOSED,2024-10-16T19:08:52.910243Z,10/16/2024 19:20
04d8d007210d4f88859e6af72bd31923,ST. STEPHEN'S GREEN,53.357541,-6.233304,5,25,30,CLOSED,2024-10-16T18:29:52.910243Z,10/16/2024 19:20
2d3be7ebba74402db4f4d208d949f355,TALBOT STREET,53.345389,-6.250625,2,33,35,CLOSED,2024-10-16T18:34:52.910243Z,10/16/2024 19:20
e280cc5a20e14f958266a148fb7c14e6,HATCH STREET,53.349217,-6.247673,35,5,40,OPEN,2024-10-16T18:41:52.910243Z,10/16/2024 19:20
4540110c36924884836c317d23d4d2fa,ECCLES STREET,53.336921,-6.269249,13,7,20,OPEN,2024-10-16T18:23:52.910243Z,10/16/2024 19:20
57d2d17672924a0ca43c6437d68a3554,HATCH STREET,53.345124,-6.266167,20,15,35,CLOSED,2024-10-16T19:06:52.910243Z,10/16/2024 19:20
5c82a04002ad45fca461bc46591413b5,HEUSTON STATION,53.347824,-6.236816,1,29,30,OPEN,2024-10-16T18:29:52.910243Z,10/16/2024 19:20
b6dc39ec52d94c248d97351cec08d9a3,HATCH STREET,53.35091,-6.277974,7,13,20,OPEN,2024-10-16T18:39:52.910243Z,10/16/2024 19:20
6a79f169f6cb4ef0938522c32def8380,ST. STEPHEN'S GREEN,53.336279,-6.27022,0,40,40,OPEN,2024-10-16T18:38:52.910243Z,10/16/2024 19:20
3ab27866a2e24b7c824673d817b2db5d,ST. STEPHEN'S GREEN,53.34234,-6.248692,4,21,25,CLOSED,2024-10-16T19:14:52.910243Z,10/16/2024 19:20
2a05a2936e5e482982bcbba9da69baf4,ECCLES STREET,53.353602,-6.24285,32,8,40,OPEN,2024-10-16T18:37:52.910243Z,10/16/2024 19:20
790ff2f353f74223a67ff465e3e258d4,PARNELL SQUARE,53.347607,-6.26962,12,8,20,CLOSED,2024-10-16T18:20:52.910243Z,10/16/2024 19:20
1d75306670534fdc8232275986485d03,WILTON TERRACE,53.348395,-6.268893,10,15,25,CLOSED,2024-10-16T18:22:52.910243Z,10/16/2024 19:20
fe89eaee02184d768f057b488d05a5e9,HEUSTON STATION,53.34603,-6.25844,11,9,20,OPEN,2024-10-16T19:16:52.910243Z,10/16/2024 19:20
9ff867b3d5ab42a3ae2a7ced4febfd27,PEARSE STREET,53.355947,-6.264717,9,11,20,OPEN,2024-10-16T19:02:52.910243Z,10/16/2024 19:20
e69c5e13e50c4c43a043093f4232b6b1,TALBOT STREET,53.35984,-6.234763,16,9,25,CLOSED,2024-10-16T18:21:52.910243Z,10/16/2024 19:20
e55793759f714cdca89f88918e1fdc25,HIGH STREET,53.348946,-6.262186,9,31,40,CLOSED,2024-10-16T18:59:52.910243Z,10/16/2024 19:20
7201dc9dfeb346b7b57dd49da722d104,ST. STEPHEN'S GREEN,53.348673,-6.233276,1,24,25,CLOSED,2024-10-16T19:04:52.910243Z,10/16/2024 19:20
925b2520324446c0820d3413983246e6,PEARSE STREET,53.359588,-6.230735,36,4,40,CLOSED,2024-10-16T19:10:52.910243Z,10/16/2024 19:20
5d4595b0c41840ba8dc4e2bb19c7ba42,TALBOT STREET,53.353636,-6.259675,0,30,30,CLOSED,2024-10-16T18:42:52.910243Z,10/16/2024 19:20
32cd4568aaf7497f9e819dfa47ef2994,HEUSTON STATION,53.34356,-6.24831,21,9,30,CLOSED,2024-10-16T19:05:52.910243Z,10/16/2024 19:20
6d1dfa561d6a4e58bd1888479bac0f79,MERRION SQUARE,53.355706,-6.248013,7,13,20,CLOSED,2024-10-16T18:46:52.910243Z,10/16/2024 19:20
3ca11f462f154615bab0519a2f6657f0,HATCH STREET,53.346916,-6.262612,20,5,25,OPEN,2024-10-16T18:45:52.910243Z,10/16/2024 19:20
9988a5b47c1c4c2083b1898f1f839b75,PARNELL SQUARE,53.33678,-6.279932,15,10,25,CLOSED,2024-10-16T18:47:52.910243Z,10/16/2024 19:20
fd603993602d4b3a86f65cbd6e3f91a6,ST. STEPHEN'S GREEN,53.356283,-6.245063,16,14,30,CLOSED,2024-10-16T18:20:52.910243Z,10/16/2024 19:20
aa670d3a721242b8adf7633ed234e450,GRATTAN STREET,53.353144,-6.268743,10,25,35,OPEN,2024-10-16T18:26:52.910243Z,10/16/2024 19:20
551f51311ed0438fa405fb1990ce2be0,GRAND CANAL DOCK,53.337075,-6.260955,39,1,40,CLOSED,2024-10-16T18:49:52.910243Z,10/16/2024 19:20
bc5b9f8292884223aa6e49af2ed5faab,HEUSTON STATION,53.357016,-6.26079,18,22,40,CLOSED,2024-10-16T18:36:52.910243Z,10/16/2024 19:20
f32861c776ee467794ae7de6fe37d23a,HEUSTON STATION,53.342536,-6.252908,2,18,20,OPEN,2024-10-16T19:01:52.910243Z,10/16/2024 19:20
51ea349e0797499f8bc1e82880ef0298,SMITHFIELD,53.343083,-6.262265,19,1,20,CLOSED,2024-10-16T18:29:52.910243Z,10/16/2024 19:20
4bb259b789b847329914c7be9acfc42c,KING STREET NORTH,53.356582,-6.23684,15,20,35,OPEN,2024-10-16T19:17:52.910243Z,10/16/2024 19:20
3c0518229b7848dd95c16e3e86dd030c,ST. STEPHEN'S GREEN,53.338315,-6.24908,11,24,35,OPEN,2024-10-16T19:14:52.910243Z,10/16/2024 19:20
d030b6c14dc84ecd97e35d563fe28670,HIGH STREET,53.35902,-6.279977,2,38,40,OPEN,2024-10-16T18:48:52.910243Z,10/16/2024 19:20
c7fb4bee952d4c8290e15c3ea931bf6d,MOUNTJOY SQUARE,53.330982,-6.255052,8,22,30,CLOSED,2024-10-16T19:10:52.910243Z,10/16/2024 19:20
011cb51be96b4ea78bfc523f65ba1882,PARNELL SQUARE,53.357973,-6.248671,9,21,30,OPEN,2024-10-16T19:13:52.910243Z,10/16/2024 19:20
51e9a49873ba4e7c9cb2ad422228c975,ST. STEPHEN'S GREEN,53.337634,-6.264086,9,16,25,OPEN,2024-10-16T18:40:52.910243Z,10/16/2024 19:20
19f059245b2846958733a60c490453a9,GRATTAN STREET,53.348851,-6.256618,24,11,35,OPEN,2024-10-16T18:38:52.910243Z,10/16/2024 19:20
ea499b28a3ed4011a4a95b83d27ecc1f,HEUSTON STATION,53.35653,-6.275377,33,7,40,OPEN,2024-10-16T19:13:52.910243Z,10/16/2024 19:20
75b09146da104ca48ed4fae5c11e41d1,SMITHFIELD,53.353661,-6.268025,25,5,30,CLOSED,2024-10-16T18:52:52.910243Z,10/16/2024 19:20
6bfd26dd4d3b4a82b47deffdf3aa087d,MERRION SQUARE,53.333716,-6.231142,17,8,25,OPEN,2024-10-16T19:13:52.910243Z,10/16/2024 19:20
b769ab1b992f42f290aff178576d441c,KING STREET NORTH,53.356227,-6.279284,6,34,40,OPEN,2024-10-16T19:05:52.910243Z,10/16/2024 19:20
f2b5a32a7088428ebe2a62700c4e1afb,GRATTAN STREET,53.334023,-6.259916,34,1,35,CLOSED,2024-10-16T19:07:52.910243Z,10/16/2024 19:20
583f4f769df948db8d16636373dbcf21,TALBOT STREET,53.334127,-6.236441,6,14,20,OPEN,2024-10-16T18:46:52.910243Z,10/16/2024 19:20
6fba47fa6a3146caa2046b63406d661e,WILTON TERRACE,53.336177,-6.245251,15,10,25,OPEN,2024-10-16T19:19:52.910243Z,10/16/2024 19:20
579b412890814ba0b1b5160a0613b149,TALBOT STREET,53.344937,-6.253651,11,9,20,OPEN,2024-10-16T18:34:52.910243Z,10/16/2024 19:20
94999eadbc2a4ad6982d3e3f55512b70,HIGH STREET,53.330739,-6.259223,11,9,20,CLOSED,2024-10-16T18:28:52.910243Z,10/16/2024 19:20
b261055ee2a94db8aed3d528363dcccf,GRAND CANAL DOCK,53.352388,-6.24389,21,9,30,CLOSED,2024-10-16T19:16:52.910243Z,10/16/2024 19:20
a7a8c764fb7946fd86fe9e2d6f5c40ed,HEUSTON STATION,53.337959,-6.256459,15,10,25,OPEN,2024-10-16T18:24:52.910243Z,10/16/2024 19:20
8f7e8c073989479198bd0839b6dd3143,PEARSE STREET,53.339482,-6.259665,20,0,20,OPEN,2024-10-16T18:26:52.910243Z,10/16/2024 19:20
42b4806860ab4dddb05cd430806741da,ST. STEPHEN'S GREEN,53.343706,-6.261921,17,13,30,CLOSED,2024-10-16T18:21:52.910243Z,10/16/2024 19:20
ff0dc8f7be1c4d14a5ebac66c9d4501d,ST. STEPHEN'S GREEN,53.3304,-6.236108,35,5,40,CLOSED,2024-10-16T18:24:52.910243Z,10/16/2024 19:20
70c14e0ea16e481aa1da01ac23810af1,GRATTAN STREET,53.332627,-6.263435,19,11,30,CLOSED,2024-10-16T18:30:52.910243Z,10/16/2024 19:20
c7e3afaa4add491fbc84a6f61547a956,TALBOT STREET,53.358118,-6.257133,4,21,25,CLOSED,2024-10-16T19:12:52.911256Z,10/16/2024 19:20
2d6b6f5491ab4f0db69ae4cd0fab556f,WILTON TERRACE,53.354753,-6.276392,6,19,25,OPEN,2024-10-16T18:24:52.911256Z,10/16/2024 19:20
1702de65b9df483b86641149edbecd4e,HATCH STREET,53.359605,-6.265285,21,19,40,OPEN,2024-10-16T18:43:52.911256Z,10/16/2024 19:20
136cc430aae042ca8a94c5b9282650d4,PARNELL SQUARE,53.359421,-6.238891,15,5,20,OPEN,2024-10-16T19:06:52.911256Z,10/16/2024 19:20
514b7f72b7d14af0b0c30ae9d6041155,GRAND CANAL DOCK,53.34983,-6.245658,7,18,25,CLOSED,2024-10-16T18:45:52.911256Z,10/16/2024 19:20
6391d58b144345e1ae0f3b0e8441a40a,HIGH STREET,53.347003,-6.236751,22,3,25,CLOSED,2024-10-16T19:02:52.911256Z,10/16/2024 19:20
74e4597d4d504442a0087a429e50e7ba,SMITHFIELD,53.349446,-6.231672,19,1,20,CLOSED,2024-10-16T18:47:52.911256Z,10/16/2024 19:20
704a49a7516e46cb8be2f356d4f2b3b5,MOUNTJOY SQUARE,53.335905,-6.256349,0,35,35,OPEN,2024-10-16T19:18:52.911256Z,10/16/2024 19:20
e08cf99dcd95404c96e300f84b8945e1,WILTON TERRACE,53.332498,-6.260256,1,39,40,CLOSED,2024-10-16T18:25:52.911256Z,10/16/2024 19:20
100aa600ec564d5497bb221e507e67cc,HIGH STREET,53.335061,-6.255479,20,0,20,OPEN,2024-10-16T19:03:52.911256Z,10/16/2024 19:20
617e809703d34cbd8f771e29ba62f038,WILTON TERRACE,53.348148,-6.27411,4,26,30,OPEN,2024-10-16T19:00:52.911256Z,10/16/2024 19:20
1ba8afb47dc34015be2633947a024a40,HEUSTON STATION,53.336484,-6.241757,22,3,25,OPEN,2024-10-16T18:56:52.911256Z,10/16/2024 19:20
a50558bf7dbe42b79bc7aef9c8164fa2,GRAND CANAL DOCK,53.330258,-6.244055,8,32,40,CLOSED,2024-10-16T18:44:52.911256Z,10/16/2024 19:20
607e1c997b254ef0a2938e193dda74bf,HIGH STREET,53.335803,-6.248438,0,20,20,CLOSED,2024-10-16T19:07:52.911256Z,10/16/2024 19:20
a98aa9af3464450ca5ca0134c2fd155c,KING STREET NORTH,53.359546,-6.234306,24,11,35,OPEN,2024-10-16T18:34:52.911256Z,10/16/2024 19:20
0f4a1be5e54b4d0f90899bb8d685b2bc,WILTON TERRACE,53.337048,-6.242218,17,3,20,OPEN,2024-10-16T18:38:52.911256Z,10/16/2024 19:20
0a8ba1e3eac84a48970b9b16efc021e8,KING STREET NORTH,53.345171,-6.258561,25,5,30,CLOSED,2024-10-16T18:48:52.911256Z,10/16/2024 19:20
f9939bb493c94bfdad88ddf0be96a522,SMITHFIELD,53.359556,-6.258987,25,0,25,CLOSED,2024-10-16T18:30:52.911256Z,10/16/2024 19:20
bab754427539408c8cfccc16ae8252d9,ECCLES STREET,53.34804,-6.23727,20,0,20,CLOSED,2024-10-16T18:49:52.911256Z,10/16/2024 19:20
d5a81de357204ac583eb203191392cfa,SMITHFIELD,53.331603,-6.243503,16,19,35,OPEN,2024-10-16T19:06:52.911256Z,10/16/2024 19:20
f0ede8c7ca594cef8a072bee00de6bf5,HIGH STREET,53.339253,-6.25137,0,20,20,CLOSED,2024-10-16T18:29:52.911256Z,10/16/2024 19:20
67d1ce8229b24ae998081fc564f5ba85,MOUNTJOY SQUARE,53.348915,-6.248179,4,26,30,CLOSED,2024-10-16T19:07:52.911256Z,10/16/2024 19:20
8ec15d39d12a447485ff57f508194249,ST. STEPHEN'S GREEN,53.345853,-6.263915,18,7,25,CLOSED,2024-10-16T18:52:52.911256Z,10/16/2024 19:20
77a65f8363ac478190698a2d72ff9bf0,HEUSTON STATION,53.349881,-6.264513,7,13,20,CLOSED,2024-10-16T19:08:52.911256Z,10/16/2024 19:20
6516a6178353459cbe21ad125e41aee7,ECCLES STREET,53.356233,-6.278603,28,12,40,CLOSED,2024-10-16T19:09:52.911256Z,10/16/2024 19:20
35fcdf102603466699570965fd953576,HATCH STREET,53.348276,-6.242461,22,8,30,CLOSED,2024-10-16T18:25:52.911256Z,10/16/2024 19:20
91a40410e68a465abbdbee867fb1eb16,HIGH STREET,53.352472,-6.274463,29,1,30,OPEN,2024-10-16T18:53:52.911256Z,10/16/2024 19:20
97d6bc11c258496cabc2ba24fa1880a6,GRAND CANAL DOCK,53.345842,-6.242177,12,28,40,CLOSED,2024-10-16T18:29:52.911256Z,10/16/2024 19:20
4a7218c1fcd74c0583f0b5e846339892,GRAND CANAL DOCK,53.331577,-6.233901,17,8,25,CLOSED,2024-10-16T18:20:52.911256Z,10/16/2024 19:20
af9f71d1a48d4aaea81d88a0dfaf1fa5,WILTON TERRACE,53.345651,-6.235226,20,10,30,CLOSED,2024-10-16T18:20:52.911256Z,10/16/2024 19:20
42a09cfe813141fca286e2825bcd32f0,HIGH STREET,53.342354,-6.233901,15,15,30,CLOSED,2024-10-16T19:03:52.911256Z,10/16/2024 19:20
bd31a73c1a0f40c69b929d8e0b63bc5f,WILTON TERRACE,53.343545,-6.278846,31,4,35,OPEN,2024-10-16T19:03:52.911256Z,10/16/2024 19:20
d056f3f657cb4441b4d09858aa7bd0ed,WILTON TERRACE,53.340223,-6.260825,9,11,20,CLOSED,2024-10-16T19:04:52.911256Z,10/16/2024 19:20
761dda9ab1fc434d8bf276e390039708,GRATTAN STREET,53.33627,-6.256286,19,11,30,CLOSED,2024-10-16T19:07:52.911256Z,10/16/2024 19:20
f4e6ac32ea104c63a94483602b6caeae,ECCLES STREET,53.332757,-6.273682,36,4,40,CLOSED,2024-10-16T19:08:52.911256Z,10/16/2024 19:20
573a48493de04618b6cd4f437bff2474,HIGH STREET,53.333203,-6.244132,12,23,35,CLOSED,2024-10-16T18:27:52.911256Z,10/16/2024 19:20
c1b6da00f84f4d65b95f4e3ed8a1f3ba,HIGH STREET,53.346144,-6.254294,25,0,25,CLOSED,2024-10-16T19:15:52.911256Z,10/16/2024 19:20
f3b239d937e041b4b8201aba18166137,ECCLES STREET,53.338534,-6.243099,22,3,25,CLOSED,2024-10-16T19:13:52.911256Z,10/16/2024 19:20
83f3c090791343f8b0e4fc1745a7335b,HEUSTON STATION,53.355328,-6.242057,9,11,20,OPEN,2024-10-16T18:20:52.911256Z,10/16/2024 19:20
0191daf81e5c4d4ba381e0566e20415f,HIGH STREET,53.338855,-6.27338,17,8,25,CLOSED,2024-10-16T19:14:52.911256Z,10/16/2024 19:20
dbda12454de34d58b994cded1821387b,MERRION SQUARE,53.352937,-6.270395,27,8,35,CLOSED,2024-10-16T18:27:52.911256Z,10/16/2024 19:20
69139b5e3734458196ba71a01088dafc,GRATTAN STREET,53.332325,-6.269586,8,12,20,OPEN,2024-10-16T18:34:52.911256Z,10/16/2024 19:20
1cf0779cb8bf4f208a2030cf16ae2c4e,HEUSTON STATION,53.332055,-6.260488,17,13,30,OPEN,2024-10-16T19:11:52.911256Z,10/16/2024 19:20
1b93ed7fd3fa4887a0a1b41a5a558fe1,PEARSE STREET,53.337861,-6.259126,6,19,25,CLOSED,2024-10-16T18:34:52.911256Z,10/16/2024 19:20
3e2e92e0d9a44eefa2e03cdd7859ee61,ST. STEPHEN'S GREEN,53.352632,-6.277099,20,0,20,OPEN,2024-10-16T19:09:52.911256Z,10/16/2024 19:20
9b14a47afe434875bd0b448e8abcfcb1,PEARSE STREET,53.33545,-6.266306,35,0,35,CLOSED,2024-10-16T18:45:52.911256Z,10/16/2024 19:20
0cf1a01c2f2f4310bd0a2118d1109817,MERRION SQUARE,53.348439,-6.268604,10,25,35,CLOSED,2024-10-16T18:25:52.911256Z,10/16/2024 19:20
d5764806fba0483d8adda449324632e9,PEARSE STREET,53.335537,-6.279959,5,20,25,OPEN,2024-10-16T18:51:52.911256Z,10/16/2024 19:20
f9afe1cc07074216b4fd630c1ffc23d7,TALBOT STREET,53.350964,-6.25996,39,1,40,OPEN,2024-10-16T19:16:52.911256Z,10/16/2024 19:20
b80c5ccd56ed4170a1c89a9eb176f4f5,HIGH STREET,53.352901,-6.269406,12,23,35,CLOSED,2024-10-16T19:06:52.911256Z,10/16/2024 19:20
942ded1ca8194822a4d6e2489474761d,MOUNTJOY SQUARE,53.350539,-6.269561,21,14,35,CLOSED,2024-10-16T18:31:52.911256Z,10/16/2024 19:20
64f8eaed22aa43a9aa224099fe99f4ed,KING STREET NORTH,53.359262,-6.255444,7,18,25,CLOSED,2024-10-16T18:34:52.911256Z,10/16/2024 19:20
fb827df5ff5c4b61982756fa78d09b75,ST. STEPHEN'S GREEN,53.341149,-6.251128,20,0,20,CLOSED,2024-10-16T18:41:52.911256Z,10/16/2024 19:20
5cf9f4d007f6446f821cf1cf709f6ffa,GRAND CANAL DOCK,53.344763,-6.267898,12,8,20,CLOSED,2024-10-16T19:01:52.911256Z,10/16/2024 19:20
1ae88e9743324f2f8c12436e585c9b0c,HEUSTON STATION,53.340103,-6.231498,17,3,20,CLOSED,2024-10-16T18:35:52.911256Z,10/16/2024 19:20
da25a4c8b9b24a36802aebe942c13cd6,ST. STEPHEN'S GREEN,53.353811,-6.258825,5,35,40,OPEN,2024-10-16T18:56:52.911256Z,10/16/2024 19:20
9a4d9cffc9a047a3a844b3a3189c2e2f,KING STREET NORTH,53.357103,-6.261277,12,13,25,OPEN,2024-10-16T19:00:52.911256Z,10/16/2024 19:20
30cea30ba334443f8588d9519894004d,GRATTAN STREET,53.351891,-6.274734,14,16,30,OPEN,2024-10-16T19:11:52.911256Z,10/16/2024 19:20
8108f5e816a14a38b84ebe649a88619b,MOUNTJOY SQUARE,53.331085,-6.245756,4,31,35,OPEN,2024-10-16T18:21:52.911256Z,10/16/2024 19:20
19626d441fbe4b298d822ed9642be4cd,MERRION SQUARE,53.339004,-6.239559,20,20,40,OPEN,2024-10-16T18:41:52.911256Z,10/16/2024 19:20
64eba88e8ea84fa7a9387532d2d49530,WILTON TERRACE,53.34542,-6.239333,31,4,35,OPEN,2024-10-16T19:19:52.911256Z,10/16/2024 19:20
ae625da74851420f90bda945163e701d,MOUNTJOY SQUARE,53.353223,-6.232265,3,22,25,OPEN,2024-10-16T19:06:52.911256Z,10/16/2024 19:20
f99f8020eda74950a6e1e0b3d1737c13,KING STREET NORTH,53.339241,-6.279339,23,2,25,CLOSED,2024-10-16T18:29:52.911256Z,10/16/2024 19:20
a67c1d86099a49098c6c22883bd9bb2c,HATCH STREET,53.340782,-6.242563,13,22,35,CLOSED,2024-10-16T19:10:52.911256Z,10/16/2024 19:20
895af2dec94b417c8b24dab1b77602a9,KING STREET NORTH,53.343616,-6.258958,31,9,40,OPEN,2024-10-16T19:12:52.911256Z,10/16/2024 19:20
03a9726393624c568298367d75e81816,WILTON TERRACE,53.352634,-6.241936,13,17,30,CLOSED,2024-10-16T18:44:52.911256Z,10/16/2024 19:20
e837934eceeb4d4d9cd352f42bc33a80,ECCLES STREET,53.344837,-6.246547,17,13,30,CLOSED,2024-10-16T18:27:52.911256Z,10/16/2024 19:20
81e0c2f29d234d85b33d525fc40d527f,ST. STEPHEN'S GREEN,53.356494,-6.253159,13,7,20,CLOSED,2024-10-16T18:52:52.911256Z,10/16/2024 19:20
ec19b51bf45741b09d8721879007b8d1,HEUSTON STATION,53.339466,-6.244748,15,5,20,CLOSED,2024-10-16T19:09:52.911256Z,10/16/2024 19:20
d0de6b271be94ceaa3c4a62df0101981,PEARSE STREET,53.34278,-6.269251,12,13,25,OPEN,2024-10-16T18:50:52.911256Z,10/16/2024 19:20
45349b03854c4946aee19cb302381f3f,WILTON TERRACE,53.337431,-6.245321,15,10,25,OPEN,2024-10-16T18:24:52.911256Z,10/16/2024 19:20
16aa2ecfcb214e43a611f79274cdb9d6,GRAND CANAL DOCK,53.330215,-6.265815,16,4,20,CLOSED,2024-10-16T18:22:52.911256Z,10/16/2024 19:20
37979e86101f424e99c48d9f7b716443,ECCLES STREET,53.35372,-6.237827,0,35,35,OPEN,2024-10-16T18:27:52.911256Z,10/16/2024 19:20
e78851415151483da301d650076f33cb,PARNELL SQUARE,53.335039,-6.232846,2,28,30,CLOSED,2024-10-16T19:04:52.911256Z,10/16/2024 19:20
eb17e3b603b44221b150098c40e08f27,PARNELL SQUARE,53.357254,-6.275345,21,4,25,CLOSED,2024-10-16T18:25:52.911256Z,10/16/2024 19:20
dc7f9afb42db44428bfe5c68057ba457,KING STREET NORTH,53.354586,-6.263926,0,20,20,OPEN,2024-10-16T19:04:52.911256Z,10/16/2024 19:20
3b401e8eacb44250b08f68a3829868d4,SMITHFIELD,53.355566,-6.238268,22,3,25,CLOSED,2024-10-16T19:08:52.911256Z,10/16/2024 19:20
aa1371474af0467cae7480ad10e1b9de,KING STREET NORTH,53.330471,-6.278952,24,11,35,OPEN,2024-10-16T19:17:52.911256Z,10/16/2024 19:20
d7bae043952a40969720ed68c10d4cae,TALBOT STREET,53.359868,-6.251545,1,24,25,OPEN,2024-10-16T19:11:52.912243Z,10/16/2024 19:20
85b4871d0a1c48ceb4329a7d8b5f3ae2,HIGH STREET,53.349829,-6.243722,7,18,25,CLOSED,2024-10-16T18:44:52.912243Z,10/16/2024 19:20
8da4825fdd1b4bc5b00cafff623a7971,TALBOT STREET,53.333733,-6.24477,28,7,35,OPEN,2024-10-16T18:42:52.912243Z,10/16/2024 19:20
3885d67a854e450ca3021f109570a2ee,PARNELL SQUARE,53.357254,-6.279314,14,11,25,OPEN,2024-10-16T19:07:52.912243Z,10/16/2024 19:20
7fbba8456896433aae5508aebb6fed10,HEUSTON STATION,53.350209,-6.270433,7,18,25,CLOSED,2024-10-16T19:09:52.912243Z,10/16/2024 19:20
3bb2be1dc4d5487eb87d7cf5149690c0,HIGH STREET,53.335438,-6.257531,33,2,35,CLOSED,2024-10-16T18:43:52.912243Z,10/16/2024 19:20
6ea55cb1746a4a0e86f5c551aae8c836,MOUNTJOY SQUARE,53.341053,-6.253582,2,18,20,CLOSED,2024-10-16T18:57:52.912243Z,10/16/2024 19:20
261fe254db234f83bf6e9574d4009b6c,ECCLES STREET,53.338456,-6.24916,9,11,20,CLOSED,2024-10-16T18:29:52.912243Z,10/16/2024 19:20
d30510b2e4904016b9786f2d43f6824a,GRATTAN STREET,53.355526,-6.255944,19,16,35,OPEN,2024-10-16T19:00:52.912243Z,10/16/2024 19:20
27dbbb3169904bd4aa1f31044826a5f3,MOUNTJOY SQUARE,53.348331,-6.269753,9,11,20,OPEN,2024-10-16T18:51:52.912243Z,10/16/2024 19:20
701b3f3dee974fb89eebf2d84d2490ee,GRAND CANAL DOCK,53.340349,-6.263554,18,22,40,OPEN,2024-10-16T18:20:52.912243Z,10/16/2024 19:20
6a297519997c411386e56a2ab18d2635,HIGH STREET,53.340637,-6.262629,28,7,35,OPEN,2024-10-16T18:32:52.912243Z,10/16/2024 19:20
2ae637beb83d4ca9a570723631b9e58c,HEUSTON STATION,53.339863,-6.275393,15,15,30,CLOSED,2024-10-16T18:33:52.912243Z,10/16/2024 19:20
f2a22b032d2c4287a1b3e1762b6fde6a,TALBOT STREET,53.359484,-6.258224,18,2,20,CLOSED,2024-10-16T18:45:52.912243Z,10/16/2024 19:20
9f602bfa600a47a49e78801ac9069a46,ST. STEPHEN'S GREEN,53.333188,-6.279082,4,36,40,CLOSED,2024-10-16T18:35:52.912243Z,10/16/2024 19:20
4af3386ae1d746b1b161c9f54dc5627b,MOUNTJOY SQUARE,53.340553,-6.272318,36,4,40,CLOSED,2024-10-16T19:17:52.912243Z,10/16/2024 19:20
578e45e2fb8d4d3bb1018072ea7b1908,ECCLES STREET,53.338852,-6.244163,20,20,40,CLOSED,2024-10-16T19:18:52.912243Z,10/16/2024 19:20
9fd7ef07f24b426bbfe45c7f0f6060a9,ST. STEPHEN'S GREEN,53.35502,-6.248626,11,9,20,OPEN,2024-10-16T18:47:52.912243Z,10/16/2024 19:20
5e8f3c0b8c744732951cd90b768be246,GRAND CANAL DOCK,53.341583,-6.264462,24,6,30,OPEN,2024-10-16T18:57:52.912243Z,10/16/2024 19:20
f13a898a78a74ca8acf67a358c0bd464,HATCH STREET,53.330201,-6.273175,15,5,20,CLOSED,2024-10-16T18:40:52.912243Z,10/16/2024 19:20
0a00f0fb0c3448feb21f1b1758e0d45a,HIGH STREET,53.340067,-6.254605,19,21,40,CLOSED,2024-10-16T19:12:52.912243Z,10/16/2024 19:20
e3e48af64a484d20901b60c233091bac,SMITHFIELD,53.337073,-6.23925,6,29,35,CLOSED,2024-10-16T19:09:52.912243Z,10/16/2024 19:20
22286fe1e68b4ea180f595420e971988,PARNELL SQUARE,53.357558,-6.271152,5,35,40,OPEN,2024-10-16T18:25:52.912243Z,10/16/2024 19:20
5be8e66108194524b3ca2e8c562bea18,ST. STEPHEN'S GREEN,53.359357,-6.270386,32,8,40,OPEN,2024-10-16T19:00:52.912243Z,10/16/2024 19:20
32b5f4860aec4189bc079ca0459e4c39,HIGH STREET,53.343192,-6.23887,17,8,25,CLOSED,2024-10-16T19:02:52.912243Z,10/16/2024 19:20
070dbdbb68ee4830b60469f8e994b168,GRAND CANAL DOCK,53.359793,-6.246062,7,13,20,CLOSED,2024-10-16T18:54:52.912243Z,10/16/2024 19:20
c8c2e2328a9f41178ce9e3ea46756508,MERRION SQUARE,53.344664,-6.25087,9,16,25,CLOSED,2024-10-16T19:06:52.912243Z,10/16/2024 19:20
2b29154fddf24ef88e70ee457792d582,GRAND CANAL DOCK,53.331584,-6.277936,10,10,20,OPEN,2024-10-16T18:44:52.912243Z,10/16/2024 19:20
c025a72398b94a7f9ebfeab9387babbf,SMITHFIELD,53.346979,-6.233131,1,24,25,CLOSED,2024-10-16T18:56:52.912243Z,10/16/2024 19:20
9d5a627c3c9e4cb08c3def257b284490,PARNELL SQUARE,53.351066,-6.279474,12,23,35,CLOSED,2024-10-16T19:10:52.912243Z,10/16/2024 19:20
98cfacfc669945dfbe8ddbeea72e98c2,GRATTAN STREET,53.359647,-6.265902,14,16,30,CLOSED,2024-10-16T18:59:52.912243Z,10/16/2024 19:20
bb5541f29b9a42d18e3e3e0e5baaf02a,SMITHFIELD,53.347072,-6.251077,2,28,30,OPEN,2024-10-16T19:03:52.912243Z,10/16/2024 19:20
5c246530b27d4ca1896564fb741b2036,WILTON TERRACE,53.34394,-6.275658,20,5,25,CLOSED,2024-10-16T18:42:52.912243Z,10/16/2024 19:20
de7ed80aab15438eb493b5ddee187080,HIGH STREET,53.339052,-6.258832,6,24,30,OPEN,2024-10-16T19:12:52.912243Z,10/16/2024 19:20
d434c82d268e43b58da131d2339bd814,MERRION SQUARE,53.358997,-6.252235,14,16,30,OPEN,2024-10-16T18:27:52.912243Z,10/16/2024 19:20
5fe5c336ecd94075ab7989e80cbd59d1,HIGH STREET,53.355938,-6.248993,11,9,20,OPEN,2024-10-16T18:52:52.912243Z,10/16/2024 19:20
f968222e32f1489199e4e5f369a7598c,GRATTAN STREET,53.346133,-6.230524,28,12,40,CLOSED,2024-10-16T18:48:52.912243Z,10/16/2024 19:20
446cfc76708f4cf395e55fcb29a08d99,ECCLES STREET,53.330076,-6.24765,11,14,25,OPEN,2024-10-16T18:20:52.912243Z,10/16/2024 19:20
0060a799992947b290333df7d5b75aab,WILTON TERRACE,53.337478,-6.237002,20,0,20,OPEN,2024-10-16T18:54:52.912243Z,10/16/2024 19:20
7949effc34404e9387038513c3a602b5,ST. STEPHEN'S GREEN,53.334562,-6.272799,25,0,25,CLOSED,2024-10-16T19:15:52.912243Z,10/16/2024 19:20
db74603b27e14c079ecbd46aee46e457,GRAND CANAL DOCK,53.35276,-6.257481,18,7,25,CLOSED,2024-10-16T19:06:52.912243Z,10/16/2024 19:20
fcdeb2695e724a34b250692e1addc8bb,KING STREET NORTH,53.356242,-6.273156,23,2,25,OPEN,2024-10-16T19:13:52.912243Z,10/16/2024 19:20
55b63f396bd045a3984e8ad180606029,HIGH STREET,53.341045,-6.273807,27,8,35,CLOSED,2024-10-16T18:21:52.912243Z,10/16/2024 19:20
167e223c256f4bb1963e92c748ab4933,GRATTAN STREET,53.340517,-6.270846,28,7,35,CLOSED,2024-10-16T19:19:52.912243Z,10/16/2024 19:20
1159b2843eeb4f1fad9dc751faeefe36,PARNELL SQUARE,53.342717,-6.241451,9,26,35,CLOSED,2024-10-16T18:30:52.912243Z,10/16/2024 19:20
95db2c5ac8a54ece8a8a69e3725a1036,GRAND CANAL DOCK,53.343795,-6.239114,13,17,30,CLOSED,2024-10-16T18:45:52.912243Z,10/16/2024 19:20
1d53165608544d03a4e30059a8269dce,TALBOT STREET,53.352911,-6.234259,17,18,35,CLOSED,2024-10-16T18:20:52.912243Z,10/16/2024 19:20
6c7a48a8780246a6854188b5b216e463,HATCH STREET,53.342879,-6.265859,3,27,30,CLOSED,2024-10-16T19:14:52.912243Z,10/16/2024 19:20
b68dba7cb45f435eba5faaceac3aafeb,KING STREET NORTH,53.359248,-6.249121,24,1,25,OPEN,2024-10-16T18:39:52.912243Z,10/16/2024 19:20
abde889007e44d629986de8d683778a8,GRAND CANAL DOCK,53.334323,-6.276002,18,17,35,OPEN,2024-10-16T19:04:52.912243Z,10/16/2024 19:20
d400fb7387834c96b5fe69d34afa5d37,TALBOT STREET,53.359273,-6.274354,12,23,35,CLOSED,2024-10-16T18:59:52.912243Z,10/16/2024 19:20
8f4d5623fe9741c187d37c825b514080,PARNELL SQUARE,53.340884,-6.279607,4,26,30,CLOSED,2024-10-16T19:11:52.912243Z,10/16/2024 19:20
eb9a0345570e49e980bed13953120acd,PARNELL SQUARE,53.339202,-6.265587,35,5,40,CLOSED,2024-10-16T18:36:52.912243Z,10/16/2024 19:20
f7da964331b24b4a91b5a612f9b512dd,TALBOT STREET,53.349729,-6.256897,19,6,25,CLOSED,2024-10-16T19:00:52.912243Z,10/16/2024 19:20
de0f536faa0c46d4a2ccdce07969a28d,GRATTAN STREET,53.351767,-6.259147,15,5,20,OPEN,2024-10-16T19:01:52.912243Z,10/16/2024 19:20
eefe876709ad4992adc3efaa091d1946,MERRION SQUARE,53.340175,-6.272221,1,19,20,CLOSED,2024-10-16T18:56:52.912243Z,10/16/2024 19:20
b466a06f5f904858981856312a2fef5e,KING STREET NORTH,53.340597,-6.246403,23,2,25,OPEN,2024-10-16T19:12:52.912243Z,10/16/2024 19:20
3fcf2637641e4c0d821f4a908ba399c5,HEUSTON STATION,53.347371,-6.252821,4,16,20,CLOSED,2024-10-16T18:37:52.912243Z,10/16/2024 19:20
b86ce5e48a48459ca92bcbdae326b78a,WILTON TERRACE,53.33603,-6.233822,28,2,30,CLOSED,2024-10-16T18:25:52.912243Z,10/16/2024 19:20
0d31583b4aff481cb904bbab27edb867,ST. STEPHEN'S GREEN,53.355232,-6.26435,21,14,35,OPEN,2024-10-16T19:15:52.912243Z,10/16/2024 19:20
40358f3a95ee4881a7a5a5a6c5663a4e,HIGH STREET,53.351246,-6.270503,24,6,30,CLOSED,2024-10-16T18:44:52.912243Z,10/16/2024 19:20
3ea6497efabf494aa78035b3d6f449d0,WILTON TERRACE,53.351769,-6.242989,0,40,40,CLOSED,2024-10-16T18:46:52.912243Z,10/16/2024 19:20
158e3cfc02224dfe9a3b975eb9875e89,PEARSE STREET,53.333596,-6.273401,10,15,25,OPEN,2024-10-16T18:24:52.912243Z,10/16/2024 19:20
e0bf3099e21d4899beb312bea687570f,KING STREET NORTH,53.354526,-6.254704,15,20,35,OPEN,2024-10-16T19:13:52.912243Z,10/16/2024 19:20
50ce1ab3e0e14198aae378800ba64f86,MERRION SQUARE,53.343365,-6.248728,14,6,20,OPEN,2024-10-16T18:41:52.912243Z,10/16/2024 19:20
ce37d404114c468480885c1d66607af2,ST. STEPHEN'S GREEN,53.34134,-6.26515,2,33,35,CLOSED,2024-10-16T18:35:52.912243Z,10/16/2024 19:20
5180a9db89da444683bca6c3375aefcf,TALBOT STREET,53.337938,-6.237643,6,24,30,OPEN,2024-10-16T18:39:52.912243Z,10/16/2024 19:20
ecce38dfd1674bf7a83e783b0f4a9838,HATCH STREET,53.352531,-6.259569,0,30,30,CLOSED,2024-10-16T19:11:52.912243Z,10/16/2024 19:20
bd2fdb3516714069877b76fe4bfe3308,KING STREET NORTH,53.337948,-6.27375,5,15,20,CLOSED,2024-10-16T19:19:52.912243Z,10/16/2024 19:20
7542b901ef4d444abd8d7fa1473bc7c3,ECCLES STREET,53.338072,-6.233585,31,4,35,CLOSED,2024-10-16T18:51:52.912243Z,10/16/2024 19:20
c659a59bf6e04aeda0cf8cf37d49a206,MOUNTJOY SQUARE,53.35107,-6.244632,2,18,20,CLOSED,2024-10-16T18:45:52.912243Z,10/16/2024 19:20
20e87622ee20482eb1863824e0b66b51,GRAND CANAL DOCK,53.331907,-6.243613,17,13,30,CLOSED,2024-10-16T18:44:52.912243Z,10/16/2024 19:20
08ce5c2502ea4a0aa1808ad991e52d2b,TALBOT STREET,53.349015,-6.244862,11,14,25,OPEN,2024-10-16T18:27:52.912243Z,10/16/2024 19:20
e9fc71dc4e6b47f5a69859da1ee266d1,PARNELL SQUARE,53.343004,-6.254916,4,21,25,OPEN,2024-10-16T19:16:52.912243Z,10/16/2024 19:20
0eeb6ca150f14e639a625f20f7e22178,WILTON TERRACE,53.335372,-6.250703,16,24,40,CLOSED,2024-10-16T18:46:52.912243Z,10/16/2024 19:20
a53357af0896481bb2f58d7bc10fcafa,MOUNTJOY SQUARE,53.349025,-6.277861,29,11,40,CLOSED,2024-10-16T19:03:52.912243Z,10/16/2024 19:20
75fddc4e52eb44169891d7534a493581,MOUNTJOY SQUARE,53.34601,-6.267777,5,35,40,OPEN,2024-10-16T18:36:52.912243Z,10/16/2024 19:20
46363e5e22a04f828bcfe4ae6e10ce3e,HEUSTON STATION,53.353882,-6.279257,31,9,40,OPEN,2024-10-16T19:08:52.912243Z,10/16/2024 19:20
acb7a68661164b5b971a0b3a33102c49,HEUSTON STATION,53.335146,-6.239903,2,28,30,CLOSED,2024-10-16T18:38:52.912243Z,10/16/2024 19:20
fa9357519eea49b7bc68651017af619e,HEUSTON STATION,53.357419,-6.2593,2,23,25,CLOSED,2024-10-16T18:53:52.912243Z,10/16/2024 19:20
38c12f17481a4ecb9c3f87e3c5cd6941,PEARSE STREET,53.342769,-6.253311,7,13,20,OPEN,2024-10-16T18:47:52.912243Z,10/16/2024 19:20
eb020cac19454a2abca9c01f4b80fb66,ECCLES STREET,53.343524,-6.254645,26,14,40,CLOSED,2024-10-16T19:06:52.912243Z,10/16/2024 19:20
c9c3704b572842d295d68166be0ad80a,MERRION SQUARE,53.334281,-6.274635,15,10,25,OPEN,2024-10-16T19:18:52.913243Z,10/16/2024 19:20
515196ab56c9473493adeaa75092551a,ECCLES STREET,53.330968,-6.235882,6,29,35,OPEN,2024-10-16T19:12:52.913243Z,10/16/2024 19:20
ac359e54ac204e2993b8276941661eea,TALBOT STREET,53.33361,-6.256692,12,8,20,CLOSED,2024-10-16T18:56:52.913243Z,10/16/2024 19:20
eac4c16b84e84fbc8fe9f47a1a108988,TALBOT STREET,53.347315,-6.237931,17,13,30,CLOSED,2024-10-16T18:27:52.913243Z,10/16/2024 19:20
c639242a287b42aaa754c376700b1fe3,WILTON TERRACE,53.341642,-6.264657,14,16,30,OPEN,2024-10-16T18:33:52.913243Z,10/16/2024 19:20
c1f08954823748fca0c8b7f2f62d85cb,ECCLES STREET,53.337952,-6.248415,15,5,20,OPEN,2024-10-16T18:51:52.913243Z,10/16/2024 19:20
e869aac8f154400cb7be9ba07387780f,ST. STEPHEN'S GREEN,53.342661,-6.26896,27,13,40,OPEN,2024-10-16T18:32:52.913243Z,10/16/2024 19:20
38a478fdf1d04c02b69122381ee59fb8,TALBOT STREET,53.332995,-6.279902,20,0,20,CLOSED,2024-10-16T18:31:52.913243Z,10/16/2024 19:20
8e705dce8837490aaf60d906c6705514,MERRION SQUARE,53.347422,-6.267791,19,6,25,CLOSED,2024-10-16T18:30:52.913243Z,10/16/2024 19:20
b0b72040be7c484eb39a1f143af8aa6f,GRATTAN STREET,53.345592,-6.276423,22,13,35,OPEN,2024-10-16T19:09:52.913243Z,10/16/2024 19:20
03ef23f141ce45cb906ae24aec44b0e3,KING STREET NORTH,53.35345,-6.26984,22,8,30,OPEN,2024-10-16T18:46:52.913243Z,10/16/2024 19:20
8e4b6312abb04dcba033ee7c3d914b2c,MOUNTJOY SQUARE,53.348694,-6.243716,23,7,30,CLOSED,2024-10-16T18:50:52.913243Z,10/16/2024 19:20
fa7c4ed3ab8e46ee9619750528c057e5,GRAND CANAL DOCK,53.359383,-6.272389,8,17,25,OPEN,2024-10-16T18:58:52.913243Z,10/16/2024 19:20
ef7062eadcbf43f69faecd4fae799e53,MOUNTJOY SQUARE,53.337951,-6.247283,12,13,25,OPEN,2024-10-16T18:45:52.913243Z,10/16/2024 19:20
596dde23ab1f411292e0a9861272d948,PARNELL SQUARE,53.349915,-6.233514,25,0,25,OPEN,2024-10-16T18:37:52.913243Z,10/16/2024 19:20
7d664c40a5b44f3aac8d3cb518bb9b45,MERRION SQUARE,53.350322,-6.264528,10,10,20,CLOSED,2024-10-16T19:16:52.913243Z,10/16/2024 19:20
39d80a9f66b14b9ba62d13939d0dcb12,HEUSTON STATION,53.341401,-6.273322,23,12,35,CLOSED,2024-10-16T18:33:52.913243Z,10/16/2024 19:20
5d41fd22df8940d48e3fe43d7b45879e,ST. STEPHEN'S GREEN,53.342407,-6.23587,30,0,30,CLOSED,2024-10-16T18:48:52.913243Z,10/16/2024 19:20
9ac10c7147c6483dbb1e328cc7b511a6,GRAND CANAL DOCK,53.358565,-6.247571,11,24,35,OPEN,2024-10-16T18:49:52.913243Z,10/16/2024 19:20
690459da68ad4550b6cb9a2a6615f031,WILTON TERRACE,53.356936,-6.241465,6,34,40,CLOSED,2024-10-16T18:55:52.913243Z,10/16/2024 19:20
6b79b729c88049ca97869868820c0f57,SMITHFIELD,53.335223,-6.267655,20,15,35,OPEN,2024-10-16T18:57:52.913243Z,10/16/2024 19:20
89bff0ae1fd54a7cabf4b6b25b1306bd,GRATTAN STREET,53.330113,-6.237408,14,26,40,OPEN,2024-10-16T19:06:52.913243Z,10/16/2024 19:20
70fb39493d87472e80045320f2852db0,WILTON TERRACE,53.342206,-6.234498,3,17,20,OPEN,2024-10-16T19:02:52.913243Z,10/16/2024 19:20
85c0d6f0ee6149309614d61b796a3837,ECCLES STREET,53.330334,-6.276552,10,10,20,CLOSED,2024-10-16T19:17:52.913243Z,10/16/2024 19:20
db2b6b9fc90a4c25b76919ac08bc1fa4,TALBOT STREET,53.3321,-6.272087,24,6,30,OPEN,2024-10-16T19:02:52.913243Z,10/16/2024 19:20
f82f6aacaf104da6a667b1bee8e1a8ec,MERRION SQUARE,53.352124,-6.238145,8,27,35,OPEN,2024-10-16T18:37:52.913243Z,10/16/2024 19:20
fc2859c5d4ed46f78d00ce9d35b93438,ECCLES STREET,53.340511,-6.232111,8,27,35,OPEN,2024-10-16T19:11:52.913243Z,10/16/2024 19:20
a7f3abb9a5994d8aa6328e6f12d530b5,ST. STEPHEN'S GREEN,53.342155,-6.255105,16,24,40,CLOSED,2024-10-16T18:54:52.913243Z,10/16/2024 19:20
a8646aa4c7e445298e855cc1dd028543,ST. STEPHEN'S GREEN,53.332907,-6.263976,11,9,20,OPEN,2024-10-16T19:04:52.913243Z,10/16/2024 19:20
d4a9b859750f44569934a2bca82aeda5,ECCLES STREET,53.344619,-6.277091,24,1,25,OPEN,2024-10-16T18:28:52.913243Z,10/16/2024 19:20
b5d93710a61e43859f101d703126dd8b,WILTON TERRACE,53.336213,-6.239203,15,15,30,OPEN,2024-10-16T18:31:52.913243Z,10/16/2024 19:20
d5072e7eb93643368d34b4393f4c634d,MOUNTJOY SQUARE,53.348241,-6.251676,6,14,20,CLOSED,2024-10-16T19:04:52.913243Z,10/16/2024 19:20
a6f701f56741435aa9f8ec4530b34dc8,GRAND CANAL DOCK,53.353949,-6.248408,23,12,35,CLOSED,2024-10-16T19:14:52.913243Z,10/16/2024 19:20
70ccda22c3f94665a506aaff1122ca7b,PARNELL SQUARE,53.34643,-6.247962,17,3,20,OPEN,2024-10-16T19:10:52.913243Z,10/16/2024 19:20
dd65a3762c6e4976ab01cfa7b3d6f6f9,MOUNTJOY SQUARE,53.354212,-6.240566,6,14,20,OPEN,2024-10-16T18:55:52.913243Z,10/16/2024 19:20
74dc1faf912f474d94b431250aab515c,PARNELL SQUARE,53.330862,-6.239009,37,3,40,OPEN,2024-10-16T19:11:52.913243Z,10/16/2024 19:20
455cb3d99e6f4946bd05d9c8cdb859b0,SMITHFIELD,53.338969,-6.241822,16,9,25,CLOSED,2024-10-16T18:56:52.913243Z,10/16/2024 19:20
47b9d26e2a124872851ba230a890528b,SMITHFIELD,53.343676,-6.234552,13,7,20,OPEN,2024-10-16T19:19:52.913243Z,10/16/2024 19:20
405273ae12774ab5b2b9506a6069477c,MOUNTJOY SQUARE,53.340358,-6.2513,12,13,25,CLOSED,2024-10-16T19:01:52.913243Z,10/16/2024 19:20
b7911ad6763a464b8e7c54b1ba95d370,WILTON TERRACE,53.349286,-6.262981,21,4,25,OPEN,2024-10-16T18:37:52.913243Z,10/16/2024 19:20
be91eaba55174ea7b255af070c8190a7,WILTON TERRACE,53.357153,-6.260548,9,11,20,CLOSED,2024-10-16T19:19:52.913243Z,10/16/2024 19:20
79cfee8b131f4319b413c9983b07962b,GRAND CANAL DOCK,53.330134,-6.277523,23,2,25,OPEN,2024-10-16T19:15:52.913243Z,10/16/2024 19:20
f02cf03cb70e4fa59b00e8edbaecfc30,HATCH STREET,53.339884,-6.23705,14,26,40,CLOSED,2024-10-16T18:54:52.913243Z,10/16/2024 19:20
e83992fa7aee438cb970d7b4528b8038,PEARSE STREET,53.331393,-6.239678,6,29,35,OPEN,2024-10-16T18:47:52.913243Z,10/16/2024 19:20
6d032ceca33a48bc82c8f375b03d9e97,ECCLES STREET,53.34202,-6.271713,6,14,20,CLOSED,2024-10-16T19:03:52.913243Z,10/16/2024 19:20
b17a1b7edb824585b4639b912bac543c,KING STREET NORTH,53.343456,-6.251804,16,4,20,CLOSED,2024-10-16T19:06:52.913243Z,10/16/2024 19:20
539d171700644542acc12cce1d62c3ad,MERRION SQUARE,53.331988,-6.244742,33,2,35,CLOSED,2024-10-16T18:47:52.913243Z,10/16/2024 19:20
4ad287b0ed634f9c9ab937447db1e3e1,PARNELL SQUARE,53.338687,-6.259057,14,6,20,OPEN,2024-10-16T18:56:52.913243Z,10/16/2024 19:20
e46db494a8ad40feb7b2927c40dbdb68,KING STREET NORTH,53.351657,-6.240798,15,25,40,CLOSED,2024-10-16T19:07:52.913243Z,10/16/2024 19:20
7a0df42d34b64cac8482edde55506343,TALBOT STREET,53.358509,-6.273757,14,21,35,CLOSED,2024-10-16T18:22:52.913243Z,10/16/2024 19:20
2355365b52fc476fbecf5f61c26e5749,ST. STEPHEN'S GREEN,53.336874,-6.269082,9,16,25,CLOSED,2024-10-16T18:30:52.913243Z,10/16/2024 19:20
38fabeacf1d144b3a834b76d45e95e2f,PEARSE STREET,53.35332,-6.246039,2,28,30,CLOSED,2024-10-16T18:28:52.913243Z,10/16/2024 19:20
6e0d81b229ec485381cc3899e1cf310d,HIGH STREET,53.354102,-6.234671,19,6,25,CLOSED,2024-10-16T18:48:52.913243Z,10/16/2024 19:20
a1e6c4a86b5b4eb7b80e8c65e797f999,SMITHFIELD,53.359108,-6.243335,11,9,20,CLOSED,2024-10-16T18:48:52.913243Z,10/16/2024 19:20
103d65d131d04442be8d804283b154b2,HATCH STREET,53.35128,-6.246803,17,23,40,CLOSED,2024-10-16T19:00:52.913243Z,10/16/2024 19:20
0c5d239d74c34dd792e18b1784e3fefc,KING STREET NORTH,53.351504,-6.236663,18,17,35,OPEN,2024-10-16T18:47:52.913243Z,10/16/2024 19:20
2a552d22251b4dee94fd07c6088abc4a,SMITHFIELD,53.353057,-6.235469,11,19,30,OPEN,2024-10-16T18:56:52.913243Z,10/16/2024 19:20
46213b9123c2416ca9b9246db47dd0bd,MERRION SQUARE,53.34427,-6.240047,35,0,35,CLOSED,2024-10-16T19:13:52.913243Z,10/16/2024 19:20
e1857e9221bc45f3bd9a22861df3357a,GRAND CANAL DOCK,53.353212,-6.246512,4,26,30,OPEN,2024-10-16T18:35:52.913243Z,10/16/2024 19:20
7e1e7c7203af411e9a2ce49dfea5fc1d,ECCLES STREET,53.332607,-6.244776,23,7,30,CLOSED,2024-10-16T19:08:52.913243Z,10/16/2024 19:20
102ca76c882c4dc9b4c3b43246af8f5b,PEARSE STREET,53.355354,-6.27054,2,18,20,OPEN,2024-10-16T19:04:52.913243Z,10/16/2024 19:20
d2ed3b39aea643a5913b5541174c983e,WILTON TERRACE,53.342992,-6.244333,23,2,25,CLOSED,2024-10-16T18:43:52.913243Z,10/16/2024 19:20
81c38c8d77764561a6116a5556e65573,SMITHFIELD,53.354254,-6.240344,5,25,30,OPEN,2024-10-16T19:17:52.913243Z,10/16/2024 19:20
0df266e0b22e4173869f974126f8723b,HEUSTON STATION,53.345404,-6.242351,6,14,20,OPEN,2024-10-16T18:45:52.913243Z,10/16/2024 19:20
0652c34d95c54033a12440edd6b78ab3,TALBOT STREET,53.337875,-6.239589,7,33,40,OPEN,2024-10-16T19:07:52.913243Z,10/16/2024 19:20
fa9c8fdbadb948ba8baf79ac6ac615d1,MOUNTJOY SQUARE,53.351364,-6.271112,11,14,25,OPEN,2024-10-16T18:59:52.913243Z,10/16/2024 19:20
314fdd1ec7204f558c2448a5cb78d348,SMITHFIELD,53.339134,-6.278823,8,27,35,OPEN,2024-10-16T19:04:52.913243Z,10/16/2024 19:20
8f5547fee7cb42bbb33ad62b7b77c25e,ECCLES STREET,53.356385,-6.270301,16,9,25,CLOSED,2024-10-16T19:00:52.913243Z,10/16/2024 19:20
2597ec0b4a23460d8804872b3adeed49,TALBOT STREET,53.353983,-6.25336,2,28,30,CLOSED,2024-10-16T18:57:52.913243Z,10/16/2024 19:20
8c04bc5e382945f89b1084d330ee19c7,MOUNTJOY SQUARE,53.355575,-6.274182,17,18,35,CLOSED,2024-10-16T19:07:52.913243Z,10/16/2024 19:20
d922a298349c4ab989bf1a4ca3d7da99,ECCLES STREET,53.349909,-6.263653,40,0,40,OPEN,2024-10-16T18:51:52.913243Z,10/16/2024 19:20
d96d2aa3a2b84760a495763b6140a4f8,KING STREET NORTH,53.341716,-6.261057,5,15,20,OPEN,2024-10-16T19:06:52.913243Z,10/16/2024 19:20
5bfb79a8a8084cc785b3e402cbf9689d,TALBOT STREET,53.355138,-6.25662,3,27,30,OPEN,2024-10-16T18:40:52.914229Z,10/16/2024 19:20
7110a858ebaf44e2bd53243552a34598,MOUNTJOY SQUARE,53.350938,-6.246003,2,33,35,CLOSED,2024-10-16T18:52:52.914229Z,10/16/2024 19:20
4d698434f52f43258227b66701ea7dc1,MOUNTJOY SQUARE,53.340734,-6.239107,2,18,20,CLOSED,2024-10-16T18:29:52.914229Z,10/16/2024 19:20
73a0c9b0b32f4a338f2f52842a796260,WILTON TERRACE,53.347312,-6.271394,6,29,35,CLOSED,2024-10-16T19:06:52.914229Z,10/16/2024 19:20
2f447d059b504ac281cfe600c21501f6,ECCLES STREET,53.333153,-6.234869,14,26,40,CLOSED,2024-10-16T18:48:52.914229Z,10/16/2024 19:20
a9e472353cff4645a232b5f32baed60a,HIGH STREET,53.353906,-6.24895,17,23,40,OPEN,2024-10-16T18:38:52.914229Z,10/16/2024 19:20
6471ab9918024276a7efeabd645502d1,GRATTAN STREET,53.340122,-6.260691,4,26,30,CLOSED,2024-10-16T19:01:52.914229Z,10/16/2024 19:20
3a2a99e4297345bfadeb7f3a24fe6f2e,GRAND CANAL DOCK,53.356244,-6.279309,20,10,30,CLOSED,2024-10-16T18:54:52.914229Z,10/16/2024 19:20
1b84745b7e4d44418a364979648734e0,PARNELL SQUARE,53.344208,-6.259415,15,15,30,OPEN,2024-10-16T18:24:52.914229Z,10/16/2024 19:20
7d3c914e2d1a42daaf3826f9e9e0dfe2,MERRION SQUARE,53.348828,-6.259051,23,7,30,OPEN,2024-10-16T19:04:52.914229Z,10/16/2024 19:20
